id,name,address,city,state,zip,latitude,longitude,phone,outlet_type
AK0001-002,ANCHOR POINT PUBLIC LIBRARY,34020 NORTH FORK ROAD,ANCHOR POINT,AK,99556,59.7796673,-151.8315926,9072355692,CE
AK0002-007,CHUGIAK-EAGLE RIVER LIBRARY,12001 BUSINESS BOULEVARD #176,EAGLE RIVER,AK,99577,61.3295927,-149.5713885,9073431530,BR
AK0002-008,MULDOON LIBRARY,"1251 MULDOON ROAD, SUITE 158",ANCHORAGE,AK,99504,61.210617,-149.7334126,9073434223,BR
AK0002-010,SCOTT AND WESLEY GERRISH LIBRARY,250 EGLOFF DRIVE,GIRDWOOD,AK,99587,60.9601421,-149.1349747,9073434024,BR
AK0002-011,Z. J. LOUSSAC LIBRARY,3600 DENALI STREET,ANCHORAGE,AK,99503,61.1870715,-149.8764562,9073432892,CE
AK0002-012,MOUNTAIN VIEW LIBRARY,120 SOUTH BRAGAW STREET,ANCHORAGE,AK,99508,61.2226231,-149.8085247,9073432819,BR
AK0003-002,ANDERSON COMMUNITY LIBRARY,101 FIRST STREET,ANDERSON,AK,99744,64.3437494,-149.1744083,9075822628,CE
AK0006-002,KUSKOKWIM CONSORTIUM LIBRARY,420 CHIEF EDDIE HOFFMAN HIGHWAY,BETHEL,AK,99559,60.7905892,-161.7736923,9075434516,CE
AK0007-002,BIG LAKE PUBLIC LIBRARY,3140 SOUTH BIG LAKE ROAD,BIG LAKE,AK,99652,61.5477236,-149.8186701,9078617635,CE
AK0008-002,CANTWELL COMMUNITY LIBRARY,1 SCHOOL ROAD,CANTWELL,AK,99729,63.3923707,-148.8948017,9077682372,CE
AK0011-002,CHINIAK PUBLIC LIBRARY,43318 SPRUCE WAY,CHINIAK,AK,99615,57.6122436,-152.2335921,-4,CE
AK0014-002,COLD BAY PUBLIC LIBRARY,10 BARANOV ROAD,COLD BAY,AK,99571,55.2065854,-162.7150695,9075322878,CE
AK0015-002,COOPER LANDING COMMUNITY LIBRARY,18511 BEAN CREEK ROAD,COOPER LANDING,AK,99572,60.493989,-149.8238238,9075951241,CE
AK0016-002,CORDOVA PUBLIC LIBRARY,601 FIRST STREET,CORDOVA,AK,99574,60.5444044,-145.7584917,9074246667,CE
AK0017-003,CRAIG PUBLIC LIBRARY,504 THIRD STREET,CRAIG,AK,99921,55.4760787,-133.1514427,9078263281,CE
AK0019-002,DELTA COMMUNITY LIBRARY,2291 DEBORAH STREET,DELTA JUNCTION,AK,99737,64.0468044,-145.734613,9078954102,CE
AK0020-002,DILLINGHAM PUBLIC LIBRARY,306 D STREET WEST,DILLINGHAM,AK,99576,59.0406409,-158.4634525,9078425610,CE
AK0021-002,EAGLE PUBLIC LIBRARY,4TH & AMUNDSEN,EAGLE,AK,99738,64.78697,-141.2084499,9075472334,CE
AK0023-003,NORTH POLE BRANCH LIBRARY,656 NORTH POLE HIGH SCHOOL BLVD.,NORTH POLE,AK,99705,64.74791,-147.36566,9074886101,BR
AK0023-004,FAIRBANKS NORTH STAR PUBLIC LIBRARY,1215 COWLES STREET,FAIRBANKS,AK,99701,64.8387296,-147.7384145,9074591022,CE
AK0025-002,CHARLES EVANS COMMUNITY/SCHOOL LIBRARY,299 ANTOSKI ROAD,GALENA,AK,99741,64.7495017,-156.8815216,9076561205,CE
AK0027-002,COPPER VALLEY COMMUNITY LIBRARY,MILE 186 GLENN HIGHWAY,GLENNALLEN,AK,99588,62.10949,-145.56129,9078225427,CE
AK0028-002,GUSTAVUS PUBLIC LIBRARY,14 GUSTAVUS ROAD,GUSTAVUS,AK,99826,58.4185422,-135.7116901,9076972350,CE
AK0029-002,HAINES BOROUGH PUBLIC LIBRARY,111 THIRD AVENUE SOUTH,HAINES,AK,99827,59.2342209,-135.4477853,9077662545,CE
AK0030-002,TRI-VALLEY COMMUNITY LIBRARY,400 SUNTRANA STREET,HEALY,AK,99743,63.8734183,-149.0181333,9076832507,CE
AK0031-002,HOLLIS PUBLIC LIBRARY,NO. 1 HOLLIS CHILKAT ROAD,HOLLIS,AK,99950,55.4822294,-132.6490406,9075307112,CE
AK0032-002,HOMER PUBLIC LIBRARY,500 HAZEL AVENUE,HOMER,AK,99603,59.6435451,-151.531634,9072353180,CE
AK0033-002,HOPE COMMUNITY LIBRARY,18487 A AVENUE,HOPE,AK,99605,60.9187112,-149.6412992,9077823121,CE
AK0035-002,DOUGLAS PUBLIC LIBRARY,1016 THIRD STREET,DOUGLAS,AK,99824,58.2768534,-134.3952571,9073642378,BR
AK0035-003,MENDENHALL VALLEY PUBLIC LIBRARY,3025 DIMOND PARK LOOP,JUNEAU,AK,99801,58.3777983,-134.5892619,9077890125,BR
AK0035-004,DOWNTOWN PUBLIC LIBRARY,292 MARINE WAY,JUNEAU,AK,99801,58.2985496,-134.4045093,9075865249,CE
AK0038-002,KASILOF PUBLIC LIBRARY,58231 STERLING HIGHWAY,KASILOF,AK,99610,60.308007,-151.26127,9072997428,CE
AK0038-002,KENAI COMMUNITY LIBRARY,163 MAIN STREET LOOP,KENAI,AK,99611,60.5597341,-151.2486134,9072834378,CE
AK0039-002,KETCHIKAN PUBLIC LIBRARY,1110 COPPER RIDGE LANE,KETCHIKAN,AK,99901,55.3492315,-131.6513884,9072253331,CE
AK0040-002,KODIAK PUBLIC LIBRARY,612 EGAN WAY,KODIAK,AK,99615,57.7926192,-152.397723,9074868686,CE
AK0041-002,CHUKCHI CONSORTIUM LIBRARY,604 THIRD STREET,KOTZEBUE,AK,99752,66.8993403,-162.5873743,9074422410,CE
AK0044-002,MCGRATH COMMUNITY LIBRARY,249 F STREET,MCGRATH,AK,99627,62.9499387,-155.5889643,9075243843,CE
AK0046-002,CENTENNIAL LIBRARY,4TH & MILTON STREET,METLAKATLA,AK,99926,55.1284601,-131.5751999,9078866000,CE
AK0047-003,SOUTH NAKNEK PUBLIC LIBRARY,1 SCHOOL ROAD,SOUTH NAKNEK,AK,99670,58.7305945,-157.0072593,9072466513,BR
AK0047-004,MARTIN MONSEN REGIONAL LIBRARY,101 MAIN STREET,NAKNEK,AK,99633,58.7274076,-157.0169374,9072464465,CE
AK0048-002,NENANA PUBLIC LIBRARY,106 EAST 2ND STREET,NENANA,AK,99760,64.5623627,-149.0956459,9078325812,CE
AK0051-002,NINILCHIK COMMUNITY LIBRARY,15850 STERLING HIGHWAY,NINILCHIK,AK,99639,60.0421959,-151.6747847,9075673333,CE
AK0052-002,KEGOAYAH KOZGA LIBRARY,100 WEST 7TH AVENUE,NOME,AK,99762,64.5026594,-165.3981394,9074436628,CE
AK0055-002,PALMER PUBLIC LIBRARY,655 SOUTH VALLEY WAY,PALMER,AK,99645,61.6000114,-149.1129256,9077611371,CE
AK0056-002,PELICAN PUBLIC LIBRARY,166 SALMON WAY,PELICAN,AK,99832,57.9603508,-136.2315449,9077352500,CE
AK0057-002,PETERSBURG PUBLIC LIBRARY,14 SOUTH SECOND STREET,PETERSBURG,AK,99833,56.8109631,-132.9550539,9077723349,CE
AK0058-002,JESSIE WAKEFIELD MEMORIAL LIBRARY,207 SPRUCE DRIVE,PORT LIONS,AK,99550,57.8663839,-152.8837465,9074548185,CE
AK0064-002,SELDOVIA PUBLIC LIBRARY,260 SELDOVIA STREET,SELDOVIA,AK,99663,59.4387226,-151.7146025,9072347662,CE
AK0065-002,SEWARD COMMUNITY LIBRARY & MUSEUM,239 6TH AVENUE,SEWARD,AK,99664,60.1025088,-149.4372455,9072244082,CE
AK0067-002,SITKA PUBLIC LIBRARY,320 HARBOR DRIVE,SITKA,AK,99835,57.0497573,-135.3339472,9077478708,CE
AK0068-002,SKAGWAY PUBLIC LIBRARY,769 STATE STREET,SKAGWAY,AK,99840,59.4576019,-135.3138967,9079832665,CE
AK0069-002,JOYCE K. CARVER MEMORIAL SOLDOTNA PUBLIC LIBRARY,235 NORTH BINKLEY ST.,SOLDOTNA,AK,99669,60.4923396,-151.0723854,9072624227,CE
AK0070-002,SUTTON PUBLIC LIBRARY,11301 NORTH CHICKALOON WAY,SUTTON,AK,99674,61.7110252,-148.8774072,9078617640,CE
AK0072-002,TALKEETNA PUBLIC LIBRARY,24645 SOUTH TALKEETNA SPUR ROAD,TALKEETNA,AK,99676,62.2989572,-150.0840522,9078617645,CE
AK0074-002,TANANA COMMUNITY/SCHOOL LIBRARY,89 FRONT STREET,TANANA,AK,99777,65.1705465,-152.0816283,9073667356,CE
AK0074-002,DERMOTT O`TOOLE MEMORIAL LIBRARY,707 WEST TENAKEE AVENUE,TENAKEE SPRINGS,AK,99841,57.783945,-135.2348273,9077362248,CE
AK0075-002,TOK COMMUNITY LIBRARY,MILE 1314 ALASKA HIGHWAY,TOK,AK,99780,63.33543,-142.98035,9078835623,CE
AK0077-002,VALDEZ CONSORTIUM LIBRARY,212 FAIRBANKS DRIVE,VALDEZ,AK,99686,61.1298628,-146.3544579,9078354632,CE
AK0078-002,WASILLA PUBLIC LIBRARY,500 N CRUSEY STREET,WASILLA,AK,99654,61.58386,-149.4296874,9073765913,CE
AK0080-002,WILLOW PUBLIC LIBRARY,23557 WEST WILLOW COMMUNITY CENTER,WILLOW,AK,99688,61.7450956,-150.051764,9074957323,CE
AK0081-002,IRENE INGLE PUBLIC LIBRARY,124 SECOND STREET,WRANGELL,AK,99929,56.4731814,-132.386882,9078743535,CE
AK0085-002,FRANCES KIBBLE KENNY LAKE PUBLIC LIBRARY,MILE 5 EDGERTON HIGHWAY,KENNY LAKE,AK,99573,61.7273501,-145.0076808,9078223015,CE
AK0094-003,ALAK COMMUNITY/SCHOOL LIBRARY,567 MAIN STREET,WAINWRIGHT,AK,99782,70.6371439,-160.0329162,9077635800,BR
AK0094-004,TIKIGAK SCHOOL/COMMUNITY LIBRARY,1837 TIKIGAQ AVENUE,POINT HOPE,AK,99766,68.3493853,-166.731772,9073685800,BR
AK0094-005,NUNAMIUT SCHOOL/COMMUNITY LIBRARY,114 ILLINOIS AVENUE,ANAKTUVUK PASS,AK,99721,68.1403601,-151.7387799,9076615800,BR
AK0094-006,MEADE RIVER SCHOOL/COMMUNITY LIBRARY,4001 KIPPI STREET,ATQASUK,AK,99791,70.4806606,-157.4193599,9076335800,BR
AK0094-007,HAROLD KAVEOLOOK SCHOOL/COMMUNITY LIBRARY,2001 BARTER AVENUE,KAKTOVIK,AK,99747,70.130339,-143.6214731,9076405800,BR
AK0094-008,NUIQSUT TRAPPER SCHOOL/COMMUNITY LIBRARY,3310 3RD AVENUE,NUIQSUT,AK,99789,70.2185689,-150.9988117,9074805800,BR
AK0094-009,KALI COMMUNITY/SCHOOL LIBRARY,1029 QASIGIALIK STREET,POINT LAY,AK,99759,69.7418696,-163.0113935,9078335800,BR
AK0094-010,TUZZY CONSORTIUM LIBRARY,5421 NORTH STAR STREET,BARROW,AK,99723,71.2981587,-156.7546645,9078524050,CE
AK0099-002,MOOSE PASS PUBLIC LIBRARY,33675 DEPOT ROAD,MOOSE PASS,AK,99631,60.4877586,-149.3697429,9072883111,CE
AK0103-002,TRAPPER CREEK PUBLIC LIBRARY,8901 EAST DEVONSHIRE DRIVE,TRAPPER CREEK,AK,99683,62.3072393,-150.2386913,9078617650,CE
AK0113-002,OUZINKIE TRIBAL MEDIA CENTER,216 THIRD STREET,OUZINKIE,AK,99644,57.9227901,-152.4950817,9076802323,CE
AK0115-002,UNALASKA PUBLIC LIBRARY,64 ELEANOR DRIVE,UNALASKA,AK,99685,53.871478,-166.5316846,9075815060,CE
AK0116-002,ANIAK PUBLIC LIBRARY,270 RIVERFRONT DRIVE,ANIAK,AK,99557,61.5827067,-159.5408377,-3,CE
AK0117-002,HYDER PUBLIC LIBRARY,50 MAIN STREET,HYDER,AK,99923,55.9164058,-130.0257004,2506369169,CE
AK0124-002,LAKE MINCHUMINA COMMUNITY LIBRARY,123 AIRPORT WAY,LAKE MINCHUMINA,AK,99757,63.8826003,-152.3123175,9076743211,CE
AK0126-002,IGIUGIG TRIBAL LIBRARY,1 AIRPORT WAY,IGIUGIG,AK,99613,59.3260931,-155.8986471,9075333211,CE
AK0127-002,COFFMAN COVE COMMUNITY LIBRARY,108 NW DENALI ALLEY,COFFMAN COVE,AK,99918,56.0139009,-132.8277885,9073292080,CE
AK0130-002,THORNE BAY PUBLIC LIBRARY,120 FREEMAN DRIVE,THORNE BAY,AK,99919,55.6862677,-132.5272703,9078283303,CE
AK0134-001,WHALE PASS COMMUNITY LIBRARY,BEACH ROAD LOT 3 BLOCK 14,WHALE PASS,AK,99950,56.1142785,-133.1214178,9078465226,CE
AK0137-001,KLUKWAN COMMUNITY/SCHOOL LIBRARY,315 MISSION STREET,KLUKWAN,AK,99827,59.2325718,-135.4481046,9077675551,CE
AK0139-001,SAMUEL B. FOSS LIBRARY,1 WATERFRONT WAY,PEDRO BAY,AK,99647,59.78509,-154.11186,9078502225,CE
AK0140-001,EDNA BAY COMMUNITY LIBRARY,100 SCHOOL HOUSE ROAD,EDNA BAY,AK,99950,55.8338189,-133.05399,9075946109,CE
AK0005-002,CITY OF ADAK PUBLIC LIBRARY,PO BOX 2011,ADAK,AK,99546,51.886612,-176.760204,9075924500,CE
AK0118-002,SHIRLY JACKSON COMMUNITY LIBRARY,175 LIBRARY DR,KAKE,AK,99830,56.9747591,-133.941086,9077853741,CE
AL0001-003,CARL ELLIOTT REGIONAL LIBRARY SYSTEM,98 18TH STREET EAST,JASPER,AL,35501,33.8334779,-87.2747459,2052212584,CE
100-001,ARLEY PUBLIC LIBRARY,6788 COUNTY ROAD 41,ARLEY,AL,35541,34.0784663,-87.212368,2053870129,CE
100-002,DOUBLE SPRINGS PUBLIC LIBRARY,637 BLAKE DRIVE,DOUBLE SPRINGS,AL,35553,34.1483158,-87.3886582,2054892412,CE
100-004,HALEYVILLE PUBLIC LIBRARY,913 20TH STREET,HALEYVILLE,AL,35565,34.2262677,-87.6236178,2054867450,CE
100-005,JASPER PUBLIC LIBRARY,98 EAST 18TH STREET,JASPER,AL,35501,33.8334779,-87.2747459,2052218512,CE
100-006,SUMITON PUBLIC LIBRARY,416 STATE STREET,SUMITON,AL,35148,33.7534234,-87.0494589,2056487451,CE
100-008,CHEAHA REGIONAL LIBRARY,935 COLEMAN STREET,HEFLIN,AL,36264,33.6438309,-85.5890558,2564637125,CE
101-000,ROANOKE - ANNIE L. AWBREY PUBLIC LIBRARY,736 COLLEGE STREET,ROANOKE,AL,36274,33.1495522,-85.3704871,3348632632,CE
101-001,ASHLAND CITY PUBLIC LIBRARY,11 2ND AVENUE NORTH,ASHLAND,AL,36251,33.2748134,-85.8379012,2563543427,CE
101-002,SYLACUGA - B. B. COMER MEMORIAL LIBRARY,314 NORTH BROADWAY AVENUE,SYLACAUGA,AL,35150,33.1717863,-86.2506871,2562490961,CE
999-028,CHEROKEE COUNTY PUBLIC LIBRARY,310 MARY STREET,CENTRE,AL,35960,34.1494322,-85.6763325,2569275838,CE
101-004,CHILDERSBURG - EARLE A. RAINWATER MEMORIAL LIBRARY,124 NINTH AVENUE SW,CHILDERSBURG,AL,35044,33.2775388,-86.3556279,2563787239,CE
101-005,LINCOLN PUBLIC LIBRARY,47475 US HWY 78,LINCOLN,AL,35096,33.6038567,-86.1232068,2057634080,CE
101-006,LINEVILLE PUBLIC LIBRARY,60119 HIGHWAY 49,LINEVILLE,AL,36266,33.3108553,-85.7544835,2563965162,CE
101-007,HEFLIN - LUCILE MORGAN PUBLIC LIBRARY,541 ROSS STREET,HEFLIN,AL,36264,33.6438617,-85.5878936,2564632259,CE
101-008,OXFORD PUBLIC LIBRARY,110 EAST 6TH STREET,OXFORD,AL,36203,33.609697,-85.8354595,2568311750,CE
101-009,TALLADEGA - ARMSTRONG-OSBORNE PUBLIC LIBRARY,202 SOUTH STREET EAST,TALLADEGA,AL,35160,33.4331917,-86.0995765,2563624211,CE
999-070,ABBEVILLE MEMORIAL LIBRARY,301 KIRKLAND STREET,ABBEVILLE,AL,36310,31.5673406,-85.2503879,3345852818,CE
AL0023-003,HEADLAND - BLANCHE R. SOLOMON MEMORIAL LIBRARY,17 PARK STREET,HEADLAND,AL,36345,31.3519047,-85.3418884,3346932706,CE
999-035,BRUNDIDGE - TUPPER LIGHTFOOT MEMORIAL LIBRARY,164 SOUTH MAIN STREET,BRUNDIDGE,AL,36010,31.7184017,-85.8156685,3347352145,CE
999-061,OZARK - DALE COUNTY PUBLIC LIBRARY,296 NORTH UNION AVENUE,OZARK,AL,36360,31.4520871,-85.6333866,3347745480,CE
999-079,CLIO - ELTON B. STEPHENS LIBRARY,17 SCHOOL STREET,CLIO,AL,36017,31.7026972,-85.6149784,3342074184,CE
517-001,LOUISVILLE PUBLIC LIBRARY,1951 MAIN STREET,LOUISVILLE,AL,36048,31.7839294,-85.5552977,3342665210,CE
517-003,MIDLAND CITY - MARY BERRY BROWN MEMORIAL LIBRARY,1318 HINTON WATERS AVENUE,MIDLAND CITY,AL,36350,31.3179264,-85.4949287,3349831191,CE
999-077,NEWTON PUBLIC LIBRARY,209 OATES DRIVE,NEWTON,AL,36352,31.3313897,-85.5962824,3342993361,CE
999-078,CLAYTON - TOWN AND COUNTY PUBLIC LIBRARY,45 NORTH MIDWAY STREET,CLAYTON,AL,36016,31.8813775,-85.4495925,3347753506,CE
517-004,TROY PUBLIC LIBRARY,500 EAST WALNUT STREET,TROY,AL,36079,31.8083921,-85.9666027,3345661314,CE
999-060,UNION SPRINGS PUBLIC LIBRARY,103 NORTH PRAIRIE STREET,UNION SPRINGS,AL,36089,32.1436028,-85.716184,3347382760,CE
999-058,ANDALUSIA PUBLIC LIBRARY,212 SOUTH THREE NOTCH STREET,ANDALUSIA,AL,36420,31.3065851,-86.4830645,3342226612,CE
103-001,BRANTLEY PUBLIC LIBRARY,10 MLK DRIVE,BRANTLEY,AL,36009,31.5841065,-86.2557314,3345278624,CE
103-002,ELBA PUBLIC LIBRARY,406 SIMMONS STREET,ELBA,AL,36323,31.4146036,-86.0663378,3348976921,CE
999-034,GENEVA - EMMA KNOX KENAN LIBRARY,312 SOUTH COMMERCE STREET,GENEVA,AL,36340,31.035669,-85.8648253,3346842459,CE
103-004,ENTERPRISE PUBLIC LIBRARY,101 EAST GRUBBS STREET,ENTERPRISE,AL,36330,31.3139725,-85.852825,3343472636,CE
999-041,FLORALA PUBLIC LIBRARY,1214 FOURTH STREET,FLORALA,AL,36442,31.0056815,-86.3271629,3348583525,CE
103-006,HARTFORD - MCGREGOR-MCKINNEY PUBLIC LIBRARY,101 EAST FULTON STREET,HARTFORD,AL,36344,31.0982882,-85.696714,3345882384,CE
AL0043-002,LUVERNE PUBLIC LIBRARY,148 EAST THIRD STREET,LUVERNE,AL,36049,31.7162703,-86.2612954,3343355326,CE
103-008,OPP PUBLIC LIBRARY,1604 NORTH MAIN STREET,OPP,AL,36467,31.3053912,-86.2549692,3344936423,CE
103-009,SAMSON PUBLIC LIBRARY,200 NORTH JOHNSON STREET,SAMSON,AL,36477,31.1167225,-86.0460151,3348987806,CE
103-010,SLOCOMB PUBLIC LIBRARY,134 SOUTH DALTON AVENUE,SLOCOMB,AL,36375,31.1073924,-85.5937027,3348869009,CE
103-011,HORSESHOE BEND REGIONAL LIBRARY,207 NORTH WEST STREET,DADEVILLE,AL,36853,32.8315601,-85.7654558,2568259232,CE
104-001,ALEXANDER CITY - ADELIA MCCONNELL RUSSELL LIBRARY,318 CHURCH STREET,ALEXANDER CITY,AL,35010,32.9411837,-85.9538698,2564097001,CE
104-000,MAMIE`S PLACE,284 CHURCH STREET,ALEXANDER CITY,AL,35010,32.941507,-85.9538774,2564097015,BR
AL0049-003,DADEVILLE PUBLIC LIBRARY,205 NORTH WEST STREET,DADEVILLE,AL,36853,32.8315361,-85.7654562,2568257820,CE
104-002,GOODWATER PUBLIC LIBRARY,62 COOSA COUNTY ROAD 66,GOODWATER,AL,35072,33.0636632,-86.0549641,2568395741,CE
104-003,AUBURN PUBLIC LIBRARY,749 EAST THACH AVE,AUBURN,AL,36830,32.6044655,-85.4655676,3345013190,CE
104-004,OPELIKA PUBLIC LIBRARY,200 SOUTH 6TH STREET,OPELIKA,AL,36801,32.649174,-85.3758839,3347055380,CE
104-005,MILLBROOK PUBLIC LIBRARY,3650 GRANDVIEW ROAD,MILLBROOK,AL,36054,32.4768617,-86.3625796,3342856688,CE
104-006,ROCKFORD PUBLIC LIBRARY,9688 US HWY 231,ROCKFORD,AL,35136,32.8889443,-86.2195974,2563774911,CE
104-007,TALLASSEE COMMUNITY PUBLIC LIBRARY,99 FREEMAN AVENUE,TALLASSEE,AL,36078,32.5350413,-85.8835499,3342832732,CE
104-008,WETUMPKA PUBLIC LIBRARY,212 SOUTH MAIN STREET,WETUMPKA,AL,36092,32.5328023,-86.2064201,3345671308,CE
104-009,FLORENCE - LAUDERDALE PUBLIC LIBRARY,350 NORTH WOOD AVENUE,FLORENCE,AL,35630,34.8037252,-87.6747213,2567646564,CE
516-001,TUSCUMBIA - HELEN KELLER PUBLIC LIBRARY,511 NORTH MAIN STREET,TUSCUMBIA,AL,35674,34.7366048,-87.7035596,2563837065,CE
999-039,LEIGHTON PUBLIC LIBRARY,8740 MAIN STREET,LEIGHTON,AL,35646,34.700841,-87.5290224,2564465380,CE
999-042,MUSCLE SHOALS PUBLIC LIBRARY,1918 EAST AVALON AVENUE,MUSCLE SHOALS,AL,35661,34.7444318,-87.6466106,2563869212,CE
999-050,ROGERSVILLE PUBLIC LIBRARY,74 BANK STREET,ROGERSVILLE,AL,35652,34.8247017,-87.2919832,2562470151,CE
516-004,SHEFFIELD PUBLIC LIBRARY,316 NORTH MONTGOMERY AVENUE,SHEFFIELD,AL,35660,34.7610575,-87.6985662,2563865633,CE
999-066,NORTHWEST REGIONAL LIBRARY,185 ASHWOOD DRIVE,WINFIELD,AL,35594,33.9308428,-87.8150203,2054872330,CE
106-000,HAMILTON - CLYDE NIX PUBLIC LIBRARY,350 BEXAR AVENUE WEST,HAMILTON,AL,35570,34.1433955,-87.9928551,2059214290,CE
106-001,KENNEDY PUBLIC LIBRARY,17885 HIGHWAY 96,KENNEDY,AL,35574,33.5849902,-87.987359,2055963670,CE
106-002,GUIN - MCHS COMMUNITY LIBRARY,8115 U.S. HIGHWAY 43,GUIN,AL,35563,33.9714205,-87.9157865,2054682544,CE
106-003,MILLPORT PUBLIC LIBRARY,920 BLACK STREET,MILLPORT,AL,35576,33.561504,-88.0799995,2056624286,CE
106-004,RUSSELLVILLE PUBLIC LIBRARY,110 EAST LAWRENCE STREET,RUSSELLVILLE,AL,35653,34.5040201,-87.7280257,2563321535,CE
106-005,SULLIGENT PUBLIC LIBRARY,514 ELM STREET,SULLIGENT,AL,35586,33.903899,-88.1349895,2056988631,CE
106-006,VERNON - MARY WALLACE COBB MEMORIAL LIBRARY,110 FIRST AVENUE WEST,VERNON,AL,35592,33.7579528,-88.1108251,2056956123,CE
106-007,RED BAY - WEATHERFORD PUBLIC LIBRARY,307 4TH AVENUE SOUTH,RED BAY,AL,35582,34.4422896,-88.1463746,2563569255,CE
106-008,WINFIELD PUBLIC LIBRARY,185 ASHWOOD DRIVE,WINFIELD,AL,35594,33.9308428,-87.8150203,2054872484,CE
106-009,ATHENS - LIMESTONE PUBLIC LIBRARY,603 JEFFERSON STREET,ATHENS,AL,35611,34.7958855,-86.9718472,2562321233,CE
107-001,DECATUR PUBLIC LIBRARY,504 CHERRY STREET NE,DECATUR,AL,35602,34.6059653,-86.9813679,2563532993,CE
107-002,HARTSELLE - WILLIAM BRADFORD HUIE LIBRARY OF HARTSELLE,152 SPARKMAN STREET NW,HARTSELLE,AL,35640,34.4441428,-86.9349729,2567739880,CE
107-003,LAWRENCE COUNTY PUBLIC LIBRARY,401 COLLEGE STREET,LAWRENCE,AL,35650,34.4760675,-87.2948002,2569740883,CE
AL0079-003,BALDWIN COUNTY LIBRARY COOPERATIVE,22251 PALMER STREET,ROBERTSDALE,AL,36567,30.550713,-87.7168675,2519704010,CE
AL0080-004,DAPHNE PUBLIC LIBRARY,2607 U.S. HIGHWAY 98,DAPHNE,AL,36526,30.6172871,-87.9048946,2516202500,CE
500-000,FAIRHOPE PUBLIC LIBRARY,501 FAIRHOPE AVENUE,FAIRHOPE,AL,36532,30.5230973,-87.9009865,2519287483,CE
500-001,FOLEY PUBLIC LIBRARY,319 EAST LAUREL AVENUE,FOLEY,AL,36535,30.4064361,-87.6793929,2519437665,CE
500-002,BAY MINETTE PUBLIC LIBRARY,205 WEST SECOND STREET,BAY MINETTE,AL,36507,30.8823403,-87.7767635,2515801648,CE
999-072,LOXLEY PUBLIC LIBRARY,1001 EAST LOXLEY AVENUE,LOXLEY,AL,36551,30.6199479,-87.752934,2519645695,CE
500-004,OSCAR JOHNSON MEMORIAL LIBRARY,21967 SIXTH STREET,SILVERHILL,AL,36576,30.5449864,-87.7518913,2519455201,CE
500-005,ROBERTSDALE PUBLIC LIBRARY,18301 PENNSYLVANIA STREET,ROBERTSDALE,AL,36567,30.5536956,-87.7118958,2519478960,CE
500-006,GULF SHORES - THOMAS B. NORTON PUBLIC LIBRARY,221 WEST 19TH AVENUE,GULF SHORES,AL,36542,30.2724328,-87.6901899,2519681176,CE
500-008,ADAMSVILLE PUBLIC LIBRARY,4825 MAIN STREET,ADAMSVILLE,AL,35005,33.6004158,-86.9536478,2056743399,CE
501-001,BESSEMER PUBLIC LIBRARY,400 19TH STREET N,BESSEMER,AL,35020,33.4033536,-86.954954,2054287882,CE
501-002,MOUNTAIN BROOK - EMMET O`NEAL LIBRARY,50 OAK STREET,MOUNTAIN BROOK,AL,35213,33.5014668,-86.7564382,2058790459,CE
501-003,FAIRFIELD - WALTER J. HANNA MEMORIAL LIBRARY,4615 GARY AVENUE,FAIRFIELD,AL,35064,33.4911035,-86.915373,2057836007,CE
501-004,FULTONDALE PUBLIC LIBRARY,500 BYRD LANE,FULTONDALE,AL,35068,33.613815,-86.7952405,2058496335,CE
501-005,GARDENDALE - MARTHA MOORE PUBLIC LIBRARY,995 MT. OLIVE ROAD,GARDENDALE,AL,35071,33.6501596,-86.8184878,2056316639,CE
501-006,GRAYSVILLE PUBLIC LIBRARY,315 SOUTH MAIN STREET,GRAYSVILLE,AL,35073,33.6265764,-86.9733585,2056743040,CE
501-007,HOMEWOOD PUBLIC LIBRARY,1721 OXMOOR ROAD,HOMEWOOD,AL,35209,33.4754382,-86.7955213,2053326600,CE
501-008,HOOVER PUBLIC LIBRARY,200 MUNICIPAL DRIVE,HOOVER,AL,35216,33.387289,-86.8049178,2054447800,CE
501-009,HUEYTOWN PUBLIC LIBRARY,1372 HUEYTOWN ROAD,HUEYTOWN,AL,35023,33.4480987,-86.9970024,2054911443,CE
501-010,IRONDALE PUBLIC LIBRARY,105 20TH STREET SOUTH,IRONDALE,AL,35210,33.5377537,-86.706527,2059511415,CE
501-011,LEEDS - JANE CULBRETH LIBRARY,8104 PARKWAY DRIVE,LEEDS,AL,35094,33.5434829,-86.5416466,2056995962,CE
501-012,MIDFIELD PUBLIC LIBRARY,400 BRELAND DRIVE,MIDFIELD,AL,35228,33.4573665,-86.9164577,-3,CE
501-013,PLEASANT GROVE PUBLIC LIBRARY,501 PARK ROAD,PLEASANT GROVE,AL,35127,33.4908882,-86.9707568,2057441742,CE
501-014,TARRANT PUBLIC LIBRARY,1143 FORD AVENUE,TARRANT,AL,35217,33.5831087,-86.7699426,2058410575,CE
501-015,TRUSSVILLE PUBLIC LIBRARY,201 PARKWAY DRIVE,TRUSSVILLE,AL,35173,33.6266603,-86.6047448,2056552022,CE
501-016,VESTAVIA HILLS LIBRARY IN THE FOREST,1221 MONTGOMERY HIGHWAY,VESTAVIA HILLS,AL,35216,33.4313886,-86.7884937,2059780161,CE
501-017,WARRIOR PUBLIC LIBRARY,101 FIRST STREET,WARRIOR,AL,35180,33.8133836,-86.8070471,2056473006,CE
501-018,BIRMINGHAM PUBLIC - AVONDALE REGIONAL LIBRARY,509 40TH STREET SOUTH,BIRMINGHAM,AL,35222,33.520971,-86.7742803,2052264000,BR
AL0108-007,BIRMINGHAM PUBLIC - CENTRAL BRANCH,2100 PARK PLACE,BIRMINGHAM,AL,35203,33.5207182,-86.807624,2052263610,CE
AL0108-003,BIRMINGHAM PUBLIC - EAST ENSLEY BRANCH,900 14TH STREET - ENSLEY,BIRMINGHAM,AL,35218,33.5151574,-86.889265,2057871928,BR
AL0108-006,BIRMINGHAM PUBLIC - EAST LAKE BRANCH,5 OPORTO-MADRID BLVD. SOUTH,BIRMINGHAM,AL,35206,33.5604678,-86.7275516,-3,BR
AL0108-004,BIRMINGHAM PUBLIC - ENSLEY BRANCH,"1201 25TH STREET, ENSLEY",BIRMINGHAM,AL,35218,33.504091,-86.8936884,-3,BR
AL0108-009,BIRMINGHAM PUBLIC - FIVE POINTS WEST BRANCH,4812 AVENUE W,BIRMINGHAM,AL,35208,33.493459,-86.875708,2052264013,BR
AL0108-010,BIRMINGHAM PUBLIC - INGLENOOK BRANCH,4100 40TH TERRACE NORTH,BIRMINGHAM,AL,35217,33.5620961,-86.7766963,2058498739,BR
AL0108-011,BIRMINGHAM PUBLIC - NORTH AVONDALE BRANCH,501 43RD STREET NORTH,BIRMINGHAM,AL,35222,33.5308389,-86.7722887,2055922082,BR
AL0108-012,BIRMINGHAM PUBLIC - NORTH BIRMINGHAM REGIONAL BRANCH,2501 31ST AVENUE NORTH,BIRMINGHAM,AL,35207,33.5522939,-86.8197629,2052264025,BR
AL0108-013,BIRMINGHAM PUBLIC - POWDERLY BRANCH,3301 JEFFERSON AVENUE SW,BIRMINGHAM,AL,35221,33.46387,-86.8876474,2059256178,BR
AL0108-014,BIRMINGHAM PUBLIC - PRATT CITY BRANCH,1100 HIBERNIAN STREET,BIRMINGHAM,AL,35214,33.5408851,-86.8790586,2057414997,BR
AL0108-016,BIRMINGHAM PUBLIC - SMITHFIELD BRANCH,18TH AVENUE WEST,BIRMINGHAM,AL,35204,33.5137224,-86.8365213,2053248428,BR
AL0108-005,BIRMINGHAM PUBLIC - SOUTHSIDE BRANCH,1814 11TH AVENUE SOUTH,BIRMINGHAM,AL,35205,33.4997275,-86.7982268,2059337776,BR
AL0108-017,BIRMINGHAM PUBLIC - SPRINGVILLE ROAD REGIONAL BRANCH,1224 OLD SPRINGVILLE ROAD,BIRMINGHAM,AL,35215,33.6163564,-86.6768131,2052264081,BR
AL0108-018,BIRMINGHAM PUBLIC - TITUSVILLE BRANCH,26TH AVENUE SW,BIRMINGHAM,AL,35211,33.492415,-86.8318051,2053221140,BR
AL0108-019,BIRMINGHAM PUBLIC - WEST END BRANCH,1348 TUSCALOOSA AVE. SW,BIRMINGHAM,AL,35211,33.4922243,-86.8551612,2052264089,BR
AL0108-020,BIRMINGHAM PUBLIC - WOODLAWN BRANCH,5709 FIRST AVENUE NORTH,BIRMINGHAM,AL,35212,33.5423942,-86.7498311,2055952001,BR
AL0108-021,BIRMINGHAM PUBLIC - WYLAM BRANCH,"4300 7TH AVENUE, WYLAM",BIRMINGHAM,AL,35224,33.5057585,-86.9199972,2057850349,BR
504-000,FORT PAYNE - DEKALB COUNTY PUBLIC LIBRARY,504 GRAND AVENUE NW,FORT PAYNE,AL,35967,34.4449259,-85.7203691,2568452671,CE
AL0109-005,COLLINSVILLE PUBLIC LIBRARY,151 MAIN STREET,COLLINSVILLE,AL,35961,34.2637315,-85.860656,2565242323,CE
504-001,GERALDINE PUBLIC LIBRARY,13543 ALABAMA HIGHWAY 227,GERALDINE,AL,35974,34.3588129,-86.0060096,2566596663,CE
504-002,RAINSVILLE PUBLIC LIBRARY,941 EAST MAIN STREET,RAINSVILLE,AL,35986,34.4869857,-85.8297589,2566383311,CE
504-003,ESCAMBIA COUNTY COOPERATIVE LIBRARY SYSTEM,700 EAST CHURCH STREET,ATMORE,AL,36502,31.0226233,-87.4856824,2513684130,CE
505-000,ATMORE PUBLIC LIBRARY,700 E. CHURCH STREET,ATMORE,AL,36502,31.0226233,-87.4856824,2513685234,CE
505-001,BREWTON PUBLIC LIBRARY,206 WEST JACKSON STREET,BREWTON,AL,36426,31.1203144,-87.070318,2518674626,CE
505-002,FLOMATON PUBLIC LIBRARY,DR VAN AVENUE,FLOMATON,AL,36441,31.0014078,-87.2616134,2512963552,CE
506-000,GADSDEN - ETOWAH COUNTY PUBLIC LIBRARY,254 COLLEGE STREET,GADSDEN,AL,35901,34.0126865,-86.0098527,2565494699,CE
505-003,GADSDEN - ETOWAH COUNTY PUBLIC - EAST GADSDEN BRANCH,809 EAST BROAD STREET,GADSDEN,AL,35903,34.0020985,-85.9847207,2565494691,BR
AL0117-002,HOYT WARSHAM ALABAMA CITY BRANCH LIBRARY,2700 WEST MEIGHAN BLVD,GADSDEN,AL,35904,34.0225504,-86.045356,2565494688,BR
AL0117-008,ATTALLA - ETOWAH COUNTY PUBLIC LIBRARY,604 NORTH 4TH STREET,ATTALLA,AL,35954,34.0238312,-86.0880259,2565389266,CE
999-082,RAINBOW CITY PUBLIC LIBRARY,3702 RAINBOW DRIVE,RAINBOW CITY,AL,35906,33.9503704,-86.0467389,2564428477,CE
508-001,DEMOPOLIS PUBLIC LIBRARY,211 E. WASHINGTON STREET,DEMOPOLIS,AL,36732,32.5173375,-87.835646,3342891595,CE
508-002,MARENGO COUNTY PUBLIC LIBRARY,210 NORTH SHILOH STREET,LINDEN,AL,36748,32.3063703,-87.7965377,3342952246,CE
509-001,ARAB PUBLIC LIBRARY,325 2ND STREET NW,ARAB,AL,35016,34.3203462,-86.4969829,2565863366,CE
509-002,BOAZ PUBLIC LIBRARY,404 THOMAS AVE.,BOAZ,AL,35957,34.2008163,-86.161861,2565938056,CE
509-003,GUNTERSVILLE PUBLIC LIBRARY,1240 O`BRIG AVENUE,GUNTERSVILLE,AL,35976,34.3491918,-86.302166,2565715795,CE
509-004,ALBERTVILLE PUBLIC LIBRARY,200 JACKSON STREET,ALBERTVILLE,AL,35950,34.2643927,-86.2029593,2568918290,CE
BR,HARRISON REGIONAL LIBRARY SYSTEM,50 LESTER STREET,COLUMBIANA,AL,35051,33.1795918,-86.6087808,2056693910,CE
510-000,HARPERSVILLE PUBLIC LIBRARY,39397 HIGHWAY 25,HARPERSVILLE,AL,35078,33.3422753,-86.4392812,2056446331,BR
BR,WESTOVER PUBLIC LIBRARY,3312 WESTOVER ROAD,WESTOVER,AL,35147,33.358285,-86.5188858,2056783375,BR
510-001,ALABASTER - ALBERT L. SCOTT LIBRARY,100 9TH STREET N.W.,ALABASTER,AL,35007,33.2447742,-86.8266676,2056646822,CE
510-002,CALERA PUBLIC LIBRARY,9700 HIGHWAY 25,CALERA,AL,35040,33.0972832,-86.7683896,2056687200,CE
510-003,COLUMBIANA PUBLIC LIBRARY,50 LESTER STREET,COLUMBIANA,AL,35051,33.1795918,-86.6087808,2056695812,CE
510-004,HELENA - JANE B. HOLMES PUBLIC LIBRARY,230 TUCKER ROAD,HELENA,AL,35080,33.2890413,-86.84258,2056648308,CE
510-005,VINCENT - LALLOUSE MCGRAW PUBLIC LIBRARY,42850 HIGHWAY 25,VINCENT,AL,35178,33.3866741,-86.4108998,2056722749,CE
510-006,PARNELL MEMORIAL LIBRARY,277 PARK DRIVE,MONTEVALLO,AL,35115,33.1011186,-86.8584341,2056673052,CE
510-007,PELHAM PUBLIC LIBRARY,2000 PELHAM PARK BLVD,PELHAM,AL,35124,33.3445408,-86.7961574,2056206418,CE
510-008,WILSONVILLE - VERNICE STOUDENMIRE LIBRARY,9905 NORTH MAIN STREET,WILSONVILLE,AL,35186,33.2357438,-86.4843862,2056696180,CE
AL0137-002,NORTH SHELBY COUNTY LIBRARY,5521 CAHABA VALLEY ROAD,BIRMINGHAM,AL,35242,33.3651634,-86.716693,2054395500,CE
AL0137-003,MT LAUREL LIBRARY,111 OLMSTED STREET,BIRMINGHAM,AL,35242,33.4093237,-86.6295156,2059911660,BR
511-002,ALICEVILLE PUBLIC LIBRARY,416 THIRD AVENUE NE,ALICEVILLE,AL,35442,33.1292424,-88.1477404,2053736691,CE
511-003,CARROLLTON PUBLIC LIBRARY,225 COMMERCE AVENUE,CARROLLTON,AL,35447,33.2580697,-88.0944144,2053672142,CE
511-004,GORDO - RUTH HOLLIMAN MEMORIAL PUBLIC LIBRARY,287 MAIN STREET SOUTH,GORDO,AL,35466,33.3178337,-87.9030253,2053647148,CE
512-000,REFORM PUBLIC LIBRARY,302 FIRST STREET SOUTH,REFORM,AL,35481,33.3767053,-88.0158975,2053756240,CE
512-002,MCCAIN MEMORIAL PUBLIC LIBRARY,35717 US HWY 231,ASHVILLE,AL,35953,33.8364458,-86.2532158,2055947954,CE
512-003,MOODY - DORIS STANLEY MEMORIAL LIBRARY,300 BOOKMARK CIRCLE,MOODY,AL,35004,33.5939597,-86.4946747,2056402517,CE
999-031,ODENVILLE PUBLIC LIBRARY,200 ALABAMA STREET,ODENVILLE,AL,35120,33.6813987,-86.3964671,2056295901,CE
513-001,PELL CITY PUBLIC LIBRARY,1000 BRUCE ETHEREDGE PKWY STE 100,PELL CITY,AL,35128,33.5766212,-86.2761801,2058841015,CE
513-002,YORK - HIGHTOWER MEMORIAL LIBRARY,630 AVENUE A,YORK,AL,36925,32.4848184,-88.2942075,2053922004,CE
514-001,LIVINGSTON - RUBY PICKENS TARTT PUBLIC LIBRARY,206 MONROE ST.,LIVINGSTON,AL,35470,32.5827599,-88.1860918,2056522349,CE
514-001,ANNISTON AND CALHOUN COUNTY PUBLIC LIBRARY,108 EAST 10TH STREET,ANNISTON,AL,36202,33.6570439,-85.8278697,2562378501,CE
AL0154-006,ANNISTON AND CALHOUN  COUNTY - CARVER BRANCH,722 W. 14TH STREET,ANNISTON,AL,36201,33.6622927,-85.8388132,2562377271,BR
514-003,JACKSONVILLE PUBLIC LIBRARY,200 PELHAM ROAD SOUTH,JACKSONVILLE,AL,36265,33.812739,-85.7612825,2564356332,CE
999-001,PIEDMONT PUBLIC LIBRARY,106 NORTH MAIN STREET,PIEDMONT,AL,36272,33.9232766,-85.6135052,2564473369,CE
999-002,AKRON PUBLIC LIBRARY,207 FIRST AVENUE SOUTH,AKRON,AL,35441,32.87803,-87.7405594,2053723148,CE
999-002,DOTHAN - ASHFORD BRANCH LIBRARY,305 SIXTH AVENUE,ASHFORD,AL,36312,31.1829535,-85.2336731,3348993121,BR
AL0158-009,DOTHAN HOUSTON COUNTY LIBRARY SYSTEM,445 NORTH OATES STREET,DOTHAN,AL,36302,31.2287786,-85.3941204,3347939767,BR
AL0158-010,DOTHAN - WESTGATE BRANCH LIBRARY,535 RECREATION ROAD,DOTHAN,AL,36303,31.2386651,-85.4388551,3347939767,CE
999-004,BLOUNTSVILLE PUBLIC LIBRARY,65 CHESTNUT STREET,BLOUNTSVILLE,AL,35031,34.0789594,-86.5899344,2052493156,CE
999-005,CHEROKEE PUBLIC LIBRARY,118 CHURCH STREET,CHEROKEE,AL,35616,34.7563642,-87.972117,2563594384,CE
999-006,BRENT - CENTREVILLE PUBLIC LIBRARY,20 LIBRARY STREET,CENTREVILLE,AL,35042,32.9479133,-87.1509389,2059264736,CE
999-006,CHILTON - CLANTON PUBLIC LIBRARY,100 FIRST AVENUE,CLANTON,AL,35045,32.8407967,-86.624441,2057551768,CE
999-006,CHILTON - CLANTON PUBLIC - JEMISON BRANCH LIBRARY,160 MAIN STREET,JEMISON,AL,35085,32.9587732,-86.7461268,2055766760,BR
999-006,CHILTON - CLANTON PUBLIC - MAPLESVILLE BRANCH,9400 MAIN STREET,MAPLESVILLE,AL,36750,32.788406,-86.8724878,3343664211,BR
999-008,CHOCTAW COUNTY PUBLIC LIBRARY,124 NORTH ACADEMY AVENUE,BUTLER,AL,36904,32.0901288,-88.2200696,2054592542,CE
999-007,CHOCTAW COUNTY PUBLIC - GILBERTOWN BRANCH,251 COLLEGE STREET,GILBERTOWN,AL,36908,31.8715491,-88.3154596,2054592542,BR
999-009,CITRONELLE MEMORIAL LIBRARY,7855 STATE STREET,CITRONELLE,AL,36522,31.0908825,-88.22898,2518667319,CE
999-010,GROVE HILL PUBLIC LIBRARY,108 DUBOSE AVENUE,GROVE HILL,AL,36451,31.7053875,-87.775834,2512758157,CE
999-010,GURLEY PUBLIC LIBRARY,225 WALKER STREET,GURLEY,AL,35748,34.6961658,-86.3717564,2567762102,BR
AL0166-026,HUNTSVILLE PUBLIC - MADISON BRANCH LIBRARY,142 PLAZA DRIVE,MADISON,AL,35758,34.7102948,-86.7439445,2564610046,BR
AL0166-009,HUNTSVILLE PUBLIC - NEW HOPE PUBLIC LIBRARY,5398 MAIN DRIVE,NEW HOPE,AL,35760,34.5368313,-86.3942998,2567232995,BR
999-010,HUNTSVILLE PUBLIC - TRIANA BRANCH,357 RECORD ROAD,MADISON,AL,35756,34.5824699,-86.7344338,2567729943,BR
999-010,HUNTSVILLE PUBLIC - TILLMAN HILL BRANCH,131 KNOWLEDGE DRIVE,HAZEL GREEN,AL,35750,34.9342264,-86.5729242,2568289529,BR
999-010,HUNTSVILLE PUBLIC - MONROVIA BRANCH LIBRARY,254 ALLEN DRAKE ROAD,HUNTSVILLE,AL,35806,34.8117825,-86.7161517,2564893392,BR
999-010,HUNTSVILLE - MADISON COUNTY PUBLIC LIBRARY,915 MONROE STREET,HUNTSVILLE,AL,35804,34.7231391,-86.5904003,2565325950,CE
AL0166-028,HUNTSVILLE PUBLIC - CAVALRY HILLS BRANCH,2800 POPLAR AVENUE,HUNTSVILLE,AL,35816,34.7380531,-86.6103163,2569706313,BR
999-010,SOUTH HUNTSVILLE PUBLIC LIBRARY,7901-L BAILEY COVE ROAD,HUNTSVILLE,AL,35802,34.6618592,-86.5394129,2568810257,BR
999-010,NORTH HUNTSVILLE PUBLIC LIBRARY,3011-A SPARKMAN DRIVE,HUNTSVILLE,AL,35810,34.7608777,-86.6107667,2568517492,BR
999-012,"EUTAW - JAMES C. POOLE, JR. MEMORIAL LIIBRARY",420 PRAIRIE AVENUE,EUTAW,AL,35462,32.8375328,-87.8879868,2053729026,CE
999-013,GREENVILLE - BUTLER COUNTY PUBLIC LIBRARY,309 FORT DALE STREET,GREENVILLE,AL,36037,31.8325982,-86.6273142,3343823216,CE
999-014,HALE COUNTY LIBRARY,1103 MAIN STREET,GREENSBORO,AL,36744,32.7040663,-87.592767,3346243409,CE
999-015,CHICKASAW - INA PULLEN SMALLWOOD MEMORIAL LIBRARY,224 GRANT STREET,CHICKASAW,AL,36611,30.7649826,-88.0782779,2514526465,CE
999-016,JACKSON - WHITE SMITH MEMORIAL LIBRARY,213 COLLEGE AVENUE,JACKSON,AL,36451,31.5125382,-87.8938397,2512464963,CE
999-017,MARION - PERRY COUNTY PUBLIC LIBRARY,202 WASHINGTON STREET,MARION,AL,36756,32.6341575,-87.3190609,3346836411,CE
999-018,WOODVILLE PUBLIC LIBRARY,26 VENSON STREET,WOODVILLE,AL,35776,34.6271026,-86.2747735,2567762796,CE
999-019,CITY OF BAYOU LA BATRE PUBLIC LIBRARY,12747 PADGETT SWITCH ROAD,IRVINGTON,AL,36544,30.4258428,-88.240876,2518244213,CE
999-020,SCOTTSBORO PUBLIC LIBRARY,1002 SOUTH BROAD STREET,SCOTTSBORO,AL,35768,34.6607238,-86.0350639,2565744335,CE
999-021,ONEONTA PUBLIC LIBRARY,221 SECOND STREET SOUTH,ONEONTA,AL,35121,33.9441631,-86.4753903,2052747641,CE
999-022,THOMASVILLE PUBLIC LIBRARY,101 W FRONT ST. N,THOMASVILLE,AL,36784,31.930468,-87.7362703,3346365343,CE
999-023,MACON COUNTY - TUSKEGEE PUBLIC LIBRARY,302 SOUTH MAIN STREET,TUSKEGEE,AL,36083,32.4215533,-85.6888046,3347275192,CE
999-024,MOUNDVILLE PUBLIC LIBRARY,279 MARKET STREET,MOUNDVILLE,AL,35474,32.9974245,-87.6295421,2053712283,CE
999-032,UNIONTOWN PUBLIC LIBRARY,108 WATER STREET,UNIONTOWN,AL,36786,32.4471022,-87.5141932,3346286681,CE
999-026,PRICHARD PUBLIC LIBRARY,300 LOVEJOY LOOP WEST,PRICHARD,AL,36610,30.73169,-88.0839657,2512172606,CE
999-025,PRICHARD PUBLIC - MITCHELL BRANCH,4440 HIGHPOINT BLVD,EIGHT MILE,AL,36613,30.7599672,-88.1610533,2514567846,BR
999-030,WASHINGTON COUNTY PUBLIC - MCINTOSH BRANCH LIBRARY,803 RIVER ROAD,MCINTOSH,AL,36553,31.2630926,-88.0185274,2519442047,BR
999-026,WASHINGTON COUNTY PUBLIC LIBRARY,14102 ST. STEPHENS AVE.,CHATOM,AL,36518,31.4611328,-88.2437741,2518472097,CE
999-032,EVERGREEN - CONECUH COUNTY PUBLIC LIBRARY,119 CEMETERY AVENUE,EVERGREEN,AL,36401,31.4340273,-86.9537811,2515782670,CE
AL0187-023,MOBILE PUBLIC LIBRARY - BEN MAY MAIN LIBRARY,701 GOVERNMENT STREET,MOBILE,AL,36602,30.6871484,-88.0507047,2513401535,CE
999-032,MOBILE PUBLIC - PARKWAY BRANCH,1924-B DAUPHIN ISLAND PARKWAY,MOBILE,AL,36602,30.6301487,-88.0889693,2514944454,BR
999-032,MOBILE PUBLIC - MOORER/SPRING HILL BRANCH,4 MCGREGOR AVENUE SOUTH,MOBILE,AL,36633,30.6951227,-88.1444009,2514944140,BR
BR,MOBILE PUBLIC - TOULMINVILLE BRANCH,601 STANTON ROAD,MOBILE,AL,36602,30.7090575,-88.0968395,2514944982,BR
AL0186-013,MOBILE PUBLIC - SARALAND BRANCH LIBRARY,111 SARALAND LOOP,MOBILE,AL,36571,30.8249074,-88.0737128,2516752879,BR
BR,MOBILE PUBLIC - WEST REGIONAL LIBRARY,5555 GRELOT ROAD,MOBILE,AL,36602,30.6620198,-88.1721036,2513408555,BR
999-032,MOBILE PUBLIC - THEODORE OAKS BRANCH,"5808 HIGHWAY 90 WEST, SUITE E",MOBILE,AL,36602,30.5555964,-88.1724435,2516629676,BR
999-032,MOBILE PUBLIC - TRINITY GARDENS COMMUNITY BRANCH LIBRARY,2668 BERKLEY AVENUE,MOBILE,AL,36602,30.7326655,-88.112577,2514575954,BR
999-032,SEMMES BRANCH,9150 MOFFETT ROAD,MOBILE,AL,36602,30.7023053,-88.1152482,2514944935,BR
MOBILEBR,GRAND BAY LIBRARY,10329 FREELAND AVENUE,GRAND BAY,AL,36541,30.47609091,-88.34234952,2514942207,BR
999-037,MONTGOMERY CITY-COUNTY PUBLIC LIBRARY - JULIETTE HAMPTON MOR,245 HIGH STREET,MONTGOMERY,AL,36104,32.3719223,-86.3054605,3356254999,CE
AL0187-022,MONTGOMERY CITY-COUNTY PUBLIC LIBRARY - COLISEUM BOULEVARD B,840 COLISEUM BOULEVARD,MONTGOMERY,AL,36108,32.3999516,-86.259403,3346254834,BR
999-036,MONTGOMERY CITY-COUNTY PUBLIC LIBRARY- GOVERNOR`S SQUARE BRA,2885-B EAST SOUTH BOULEVARD,MONTGOMERY,AL,36116,32.3274275,-86.249322,3346254837,BR
999-036,MONTGOMERY CITY-COUNTY PUBLIC LIBRARY- PIKE ROAD BRANCH,9585 VAUGHN ROAD,PIKE ROAD,AL,36064,32.3469075,-86.090885,3346254886,BR
999-036,MONTGOMERY CITY-COUNTY PUBLIC LIBRARY - PINTLALA BRANCH,255 FEDERAL ROAD,HOPE HULL,AL,36043,32.1765679,-86.3728905,3346258069,BR
999-036,MONTGOMERY CITY-COUNTY PUBLIC LIBRARY - RAMER BRANCH,5444 STATE HIGHWAY 94,RAMER,AL,36069,32.0521309,-86.2182339,3345623364,BR
999-036,MONTGOMERY CITY-COUNTY PUBLIC LIBRARY - BERTHA P. WILLIAMS L,1276 ROSA PARKS AVENUE,MONTGOMERY,AL,36108,32.3591862,-86.3167919,3346254979,BR
999-036,MONTGOMERY CITY-COUNTY PUBLIC LIBRARY- EL LOWDER REGIONAL LI,3950 BELL ROAD,MONTGOMERY,AL,36116,32.3260458,-86.1958397,3346254844,BR
999-036,MONTGOMERY CITY-COUNTY PUBLIC LIBRARY - RUFUS A. LEWIS REGIO,3095 MOBILE HIGHWAY,MONTGOMERY,AL,36108,32.3473956,-86.3388359,3346254848,BR
999-036,MONTGOMERY CITY-COUNTY PUBLIC LIBRARY- HAMPSTEAD BRANCH,5240 HAMPSTEAD HIGH STREET,MONTGOMERY,AL,36116,32.312449,-86.1870878,3346254885,BR
999-040,WHITE HALL PUBLIC LIBRARY,640 FREEDOM ROAD,WHITE HALL,AL,36040,32.2915039,-86.7167084,3348747323,CE
516-002,STEVENSON PUBLIC LIBRARY,102 WEST MAIN STREET,STEVENSON,AL,35772,34.8686031,-85.8389449,2564373008,CE
516-003,KILLEN PUBLIC LIBRARY,325 J. C. MAULDIN HIGHWAY,KILLEN,AL,35645,34.8590729,-87.5417657,2567575471,CE
999-043,LEXINGTON PUBLIC LIBRARY,11075 HIGHWAY 101,LEXINGTON,AL,35648,34.9682961,-87.3712317,2562295579,CE
999-044,AUTAUGA - PRATTVILLE PUBLIC LIBRARY,254 DOSTER STREET,PRATTVILLE,AL,36067,32.4569003,-86.4688879,3343653396,CE
999-043,AUTAUGAVILLE PUBLIC LIBRARY,107 N. TAYLOR ROAD,AUTAUGAVILLE,AL,36003,32.4318924,-86.6573897,3343612096,BR
999-043,BILLINGSLEY PUBLIC LIBRARY,2021 OFFICE STREET,BILLINGSLEY,AL,36006,32.6588016,-86.7186111,2057559809,BR
999-043,MARBURY PUBLIC LIBRARY,205 COUNTY RD. 20,MARBURY,AL,36051,32.7010565,-86.4753721,2057558575,BR
999-045,FAYETTE COUNTY MEMORIAL LIBRARY,326 TEMPLE AVENUE NORTH,FAYETTE,AL,35555,33.6874778,-87.8307254,2059326625,CE
999-046,PHENIX CITY - RUSSELL COUNTY PUBLIC LIBRARY,1501 17TH AVENUE,PHENIX CITY,AL,36867,32.475704,-85.0162711,3342981139,CE
AL0196-010,SELMA - DALLAS COUNTY PUBLIC LIBRARY,1103 SELMA AVENUE,SELMA,AL,36701,32.409034,-87.0205206,3348741725,CE
999-047,WEAVER-BOLDEN BRANCH LIBRARY,2522 LANIER AVE,TUSCALOOSA,AL,35401,33.1895562,-87.5794259,2057588291,BR
999-047,TUSCALOOSA PUBLIC LIBRARY,1801 JACK WARNER PARKWAY,TUSCALOOSA,AL,35401,33.2163171,-87.5620795,2053455820,CE
999-048,BROWN BRANCH LIBRARY,300B BOBBY MILLER PARKWAY,TUSCALOOSA,AL,35405,33.1228635,-87.5372633,2053919989,BR
AL0199-010,WILCOX COUNTY LIBRARY,100 BROAD STREET,CAMDEN,AL,36726,31.9918561,-87.2897769,3346824355,CE
999-048,WILCOX COUNTY - PINE APPLE BRANCH LIBRARY,124 COUNTY ROAD 59,PINE APPLE,AL,36768,31.8821651,-86.9925084,3517462520,BR
999-049,WILCOX COUNTY - PINE HILL BRANCH LIBRARY,530 OAK GROVE STREET,PINE HILL,AL,36769,31.9876203,-87.5889274,3517462520,BR
AL0199-011,MONROE COUNTY PUBLIC LIBRARY,121 PINEVILLE ROAD,MONROEVILLE,AL,36460,31.527984,-87.3249187,2517433818,CE
AL0199-012,CULLMAN COUNTY PUBLIC LIBRARY,200 CLARK STREET NE,CULLMAN,AL,35055,34.1790743,-86.842597,2567341068,CE
999-051,CULLMAN COUNTY PUBLIC - HANCEVILLE BRANCH,201 COMMERCE ST.,HANCEVILLE,AL,35077,34.0596842,-86.7671968,2563520685,BR
999-052,CULLMAN COUNTY PUBLIC - COLONY BRANCH LIBRARY,151 BYARS ROAD,HANCEVILLE,AL,35072,33.9480121,-86.8877203,2562871573,BR
999-051,CULLMAN PUBLIC LIBARY - GARDEN CITY BRANCH LIBRARY,501 FIRST AVENUE S,GARDEN CITY,AL,35070,34.0104256,-86.7495716,2563524552,BR
999-052,CULLMAN PUBLIC LIBRARY - GUY HUNT LIBRARY - HOLLY POND,60 LIONS PARK ROAD,HOLLY POND,AL,35083,34.1817731,-86.6224238,2567965226,BR
999-081,VALLEY - H. GRADY BRADSHAW CHAMBERS COUNTY LIBRARY,3419 20TH AVENUE,VALLEY,AL,36854,32.8381094,-85.1775424,3347682161,CE
512-004,LAFAYETTE PILOT PUBLIC LIBRARY,198 1ST STREET SE,LAFAYETTE,AL,36862,32.8983973,-85.4002317,3348640012,BR
999-063,HOKES BLUFF PUBLIC LIBRARY,3310 ALFORDS BEND ROAD,HOKES BLUFF,AL,35903,33.9919082,-85.8660827,2564929846,CE
504-004,RAGLAND PUBLIC LIBRARY,26 PROVIDENCE ROAD,RAGLAND,AL,35131,33.7438122,-86.1444926,2054722007,CE
999-053,HAYNEVILLE - LOWNDES COUNTY PUBLIC LIBRARY,215 B TUSKEENA STREET,HAYNEVILLE,AL,36040,32.18419,-86.57866,3345482686,CE
517-002,IDER PUBLIC LIBRARY,10808 AL HWY 75,IDER,AL,35981,34.6968953,-85.66787,2566572170,CE
999-076,EUFAULA CARNEGIE LIBRARY,217 NORTH EUFAULA AVENUE,EUFAULA,AL,36027,31.8940034,-85.1455724,3346872337,CE
107-005,GRANT PUBLIC LIBRARY,5379 MAIN STREET,GRANT,AL,35747,34.5255019,-86.2527084,2567285128,CE
107-006,DALEVILLE PUBLIC LIBRARY,308 DONNELL BOULEVARD,DALEVILLE,AL,36322,31.3148681,-85.7070183,3345039119,CE
504-005,COURTLAND PUBLIC LIBRARY,215 COLLEGE STREET,COURTLAND,AL,35618,34.6659531,-87.310466,2566378888,CE
999-083,EVA PUBLIC LIBRARY,4549 HIGHWAY 55 EAST,EVA,AL,35621,34.3317637,-86.7576638,2567968638,CE
500-009,CROSSVILLE PUBLIC LIBRARY,12 LIBRARY LANE,CROSSVILLE,AL,35962,34.2871879,-85.9925017,2565282628,CE
999-073,WALNUT GROVE - WESTSIDE PUBLIC LIBRARY,5151 WALNUT GROVE ROAD,ALTOONA,AL,35990,34.0540377,-86.3075436,2055896699,CE
107-007,ORANGE BEACH PUBLIC LIBRARY,26267 CANAL ROAD,ORANGE BEACH,AL,36561,30.2921275,-87.57697,2519812923,CE
512-007,SATSUMA PUBLIC LIBRARY,5466 OLD HIGHWAY 43,SATSUMA,AL,36572,30.8482765,-88.058263,2516790700,CE
999-074,FALKVILLE PUBLIC LIBRARY,7 NORTH 1ST AVENUE,FALKVILLE,AL,35622,34.3686187,-86.9075189,2567845822,CE
999-080,SPRINGVILLE PUBLIC LIBRARY,6315 U.S. HIGHWAY 11,SPRINGVILLE,AL,35146,33.7741037,-86.4732459,2054672339,CE
AL0231-002,BRIDGEPORT - LENA CAGLE PUBLIC LIBRARY,401 ALABAMA AVENUE,BRIDGEPORT,AL,35740,34.9477669,-85.7130928,2564952259,CE
NEW,WEST BLOCTON PUBLIC LIBRARY,109 FLORIDA STREET,WEST BLOCTON,AL,35184,33.1216434,-87.1165015,2059383570,CE
SOMERVILLE,CARBON HILL CITY LIBRARY,215 NW 2ND STREET,CARBON HILL,AL,35549,33.8899249,-87.5291117,2059244254,CE
AL0240-001,OHATCHEE PUBLIC LIBRARY,7803 ALABAMA HIGHWAY 77,OHATCHEE,AL,36271,33.7800469,-86.0382291,2568924203,CE
AL0241-001,SOMERVILLE PUBLIC LIBRARY,192 BROAD STREET,SOMERVILLE,AL,35670,34.4734275,-86.798897,2567789779,CE
AL0242-001,CHELSEA PUBLIC LIBRARY,16623 HIGHWAY 80,CHELSEA,AL,35043,33.3476478,-86.6296268,2058475750,CE
AL0243-001,DUTTON PUBLIC LIBRARY,23 MAIN STREET,DUTTON,AL,35744,34.610279,-85.9167308,2562284090,CE
501-020,FORT DEPOSIT PUBLIC LIBRARY,11 MILNER STREET,FORT DEPOSIT,AL,36032,31.9872256,-86.5790625,3344044401,CE
104-010,SUMMERDALE - MARJORIE YOUNCE SNOOK PUBLIC LIBRARY,202 WEST BROADWAY STREET,SUMMERDALE,AL,36580,30.4872581,-87.7014765,2519892011,CE
514-005,CLAY PUBLIC LIBRARY,6757 OLD SPRINGVILLE ROAD,PINSON,AL,35126,33.7157572,-86.5769984,2056803812,CE
999-084,ECLECITC PUBLIC LIBRARY,50 MAIN STREET,ECLECTIC,AL,36024,32.6359974,-86.0357676,3346394727,CE
506-003,HOBSON CITY PUBLIC LIBRARY,610 MARTIN LUTHER KING DRIVE,HOBSON CITY,AL,36201,33.6204098,-85.8433629,2568317069,CE
512-008,MUNFORD PUBLIC LIBRARY,82 RAILROAD STREET,MUNFORD,AL,36268,33.530807,-85.9542343,2563583600,CE
AL8004-001,SOUTHSIDE PUBLIC LIBRARY,2138 HIGHWAY 77,SOUTHSIDE,AL,35907,33.9222685,-86.0224131,2564426217,CE
AL8007-005,STEELE PUBLIC LIBRARY,78 HILLVIEW STREET,STEELE,AL,35987,33.9442396,-86.1991377,2565380811,CE
AL0250-001,PINSON PUBLIC LIBRARY,4509 PINSON BOULEVARD,PINSON,AL,35126,33.691259,-86.6820513,2056809298,CE
AL8008-001,GLENCOE PUBLIC LIBRARY,101 WEST MAIN STREET,GLENCOE,AL,35905,33.956001,-85.9341248,2564594285,CE
AL8009-001,MAGNOLIA SPRINGS PUBLIC LIBRARY,"14794 CAMELLIA STREET, SUITE 600",MAGNOLIA SPRINGS,AL,36555,30.405246,-87.7705475,-3,CE
AL0079-003,TOWN CREEK PUBLIC LIBRARY,15971 MAIN STREET,TOWN CREEK,AL,35672,34.6820372,-87.4060219,2566852973,CE
501-000,JEFFERSON COUNTY LIBRARY COOPERATIVE,2100 PARK PLACE,BIRMINGHAM,AL,35203,33.5207182,-86.807624,2052263615,CE
511-000,PICKENS COUNTY COOPERATIVE LIBRARY,155 REFORM STREET,CARROLLTON,AL,35447,33.2638021,-88.094641,2053678407,CE
504-006,R.L. HADDEN MEMORIAL LIBRARY,17163 ALABAMA 75,HENAGAR,AL,35978,34.6318806,-85.744476,2566571380,CE
AL0182-006,MOUNT VERNON PUBLIC LIBRARY,19180 SHEPARD LAKE ROAD EAST,MOUNT VERNON,AL,36560,31.0925613,-87.9916217,2512991067,CE
AL8007-005,LINDA DURAN PUBLIC LIBRARY,1612 S. BETHEL RD,DECATUR,AL,35603,34.5216402,-86.8949976,2565840230,CE
AL8008-001,SARDIS CITY PUBLIC LIBRARY,1310 CHURCH STREET,SARDIS CITY,AL,35956,34.1745016,-86.1226891,2565935634,CE
AL8009-001,WOODSTOCK COMMUNITY LIBRARY,18441 EASTERN VALLEY ROAD,WOODSTOCK,AL,35074,33.2050517,-87.1537983,2059380008,CE
999-085,NEWBERN PUBLIC LIBARY,7840 ALABAMA HIGHWAY 61,NEWBERN,AL,36765,32.5979618,-87.5331166,3346244880,CE
999-086,SPANISH FORT PUBLIC LIBRARY,7361 SPANISH FORT BLVD,SPANISH FORT,AL,36527,30.6706223,-87.8951619,2514107323,CE
500-010,ELBERTA PUBLIC LIBRARY,13052 MAIN STREET,ELBERTA,AL,36530,30.4149914,-87.5981988,2519863069,CE
501-022,CENTER POINT PUBLIC LIBRARY,533 SUNHILL ROAD,CENTER POINT,AL,35215,33.6525052,-86.6998059,2055367750,CE
MOONCE,MOON LAKE LIBRARY,4607 AL HIGHWAY 117,MENTONE,AL,35984,34.56725839,-85.56751064,2566342127,CE
AR0001-002,JOHN GOULD FLETCHER BRANCH LIBRARY,823 NORTH BUCHANAN,LITTLE ROCK,AR,72205,34.7591527,-92.3383009,5016635457,BR
AR0001-003,DEE BROWN BRANCH LIBRARY,6325 BASELINE RD.,LITTLE ROCK,AR,72209,34.6685961,-92.3501957,5015687494,BR
AR0001-004,ADOLPHINE F. TERRY BRANCH LIBRARY,2015 NAPA VALLEY ROAD,LITTLE ROCK,AR,72212,34.7715325,-92.4104994,5012280129,BR
AR0001-005,AMY SANDERS BRANCH LIBRARY,10200 JOHNSON DRIVE,SHERWOOD,AR,72120,34.8525062,-92.2234004,5018357756,BR
AR0001-006,ESTHER D. NIXON LIBRARY,308 WEST MAIN ST.,JACKSONVILLE,AR,72076,34.8674231,-92.1127364,5014575038,BR
AR0001-007,MAX MILAM LIBRARY,609 APLIN AVENUE,PERRYVILLE,AR,72126,35.0051053,-92.8054989,5018892991,BR
AR0001-009,CENTRAL ARKANSAS LIBRARY SYSTEM - MAIN LIBRARY,100 ROCK STREET,LITTLE ROCK,AR,72201,34.7469837,-92.2673497,5019183000,CE
AR0001-011,MAUMELLE PUBLIC LIBRARY,10 LAKEPOINTE DRIVE,MAUMELLE,AR,72113,34.8634154,-92.4034851,5018512551,BR
AR0001-012,SUE COWAN WILLIAMS LIBRARY,1800 CHESTER AVE.,LITTLE ROCK,AR,72206,34.7324236,-92.2848442,5013764282,BR
AR0001-015,SIDNEY SANDERS MCMATH,2100 JOHN BARROW RD.,LITTLE ROCK,AR,72204,34.7343683,-92.373359,5012250066,BR
AR0001-016,ROOSEVELT THOMPSON BRANCH LIBRARY,38 RAHLING CIRCLE,LITTLE ROCK,AR,72223,34.7691259,-92.4544042,5018213060,BR
AR0001-017,OLEY E. ROOKER LIBRARY,11 OTTER CREEK CT.,LITTLE ROCK,AR,72210,34.6588865,-92.4261955,5019075991,BR
AR0001-018,HILLARY RODHAM CLINTON CHILDREN'S LIBRARY & LEARNING CENTER,4800 W. 10TH ST.,LITTLE ROCK,AR,72204,34.7436311,-92.3280921,5019783870,BR
AR0001-019,MILLIE M. BROOKS,13024 HWY. 365 SOUTH,WRIGHTSVILLE,AR,72206,34.6285669,-92.2226244,5015373186,BR
AR0002-009,GREENLAND PUBLIC LIBRARY,8 EAST ROSS/CITY COMPLEX,GREENLAND,AR,72737,35.996829,-94.1732533,4795825992,BR
AR0002-010,LINCOLN PUBLIC LIBRARY,107 WEST BEAN,LINCOLN,AR,72744,35.950068,-94.4236172,4798243294,BR
AR0002-011,PRAIRIE GROVE PUBLIC LIBRARY,881 WEST BUCHANAN STREET,PRAIRIE GROVE,AR,72753,35.9720839,-94.3308669,4798463782,BR
AR0002-012,WINSLOW PUBLIC LIBRARY,351 SOUTH HIGHWAY 71,WINSLOW,AR,72959,35.796532,-94.1278896,4796345406,BR
AR0002-013,WEST FORK PUBLIC LIBRARY,198 W. MAIN ST.,WEST FORK,AR,72774,35.9252527,-94.1867858,4798392626,BR
AR0002-014,SPRINGDALE PUBLIC LIBRARY,405 SOUTH PLEASANT STREET,SPRINGDALE,AR,72764,36.1807278,-94.1424674,4797508180,BR
AR0002-015,ELKINS PUBLIC LIBRARY,352 NORTH CENTER,ELKINS,AR,72727,36.0040571,-94.007775,4796432904,BR
AR0002-017,FARMINGTON PUBLIC LIBRARY,175 CIMARRON PLACE,FARMINGTON,AR,72730,36.0399008,-94.2487314,4792672674,BR
AR0002-018,WASHINGTON COUNTY LIBRARY SYSTEM,1080 WEST CLYDESDALE DR,FAYETTEVILLE,AR,72701,36.0345975,-94.1758613,4794426253,CE
AR0003-013,MARION COUNTY LIBRARY,308 OLD MAIN,YELLVILLE,AR,72687,36.2256175,-92.687222,8704496015,CE
AR0004-014,PRESCOTT/NEVADA COUNTY LIBRARY,121 WEST MAIN,PRESCOTT,AR,71857,33.802679,-93.3812806,8705575846,BR
AR0004-015,PIKE COUNTY LIBRARY,210 2ND AVENUE,MURFREESBORO,AR,71958,34.0618164,-93.688739,8702852575,BR
AR0004-016,BAINUM LIBRARY & LEARNING CENTER,128 EAST BROADWAY,GLENWOOD,AR,71943,34.3266808,-93.5507844,8703565193,BR
AR0004-017,DELIGHT BRANCH LIBRARY,401 EAST ANTIOCH,DELIGHT,AR,71940,34.0313662,-93.5029239,8703792456,BR
AR004-01,SOUTHWEST ARKANSAS REGIONAL LIBRARY,121 WEST MAIN,PRESCOTT,AR,71857,33.802679,-93.3812806,-4,CE
AR0005-005,GRANT COUNTY LIBRARY,210 NORTH OAK STREET,SHERIDAN,AR,72150,34.3086077,-92.4013064,8709424436,BR
AR0005-006,DALLAS COUNTY LIBRARY,501 E. 4TH ST,FORDYCE,AR,71742,33.8157582,-92.4087902,8703523592,BR
AR0005-010,ROY AND CHRISTINE STURGIS LIBRARY OF CLEVELAND COUNTY,203 WEST MAGNOLIA,RISON,AR,71665,33.9579146,-92.1921804,8703257270,BR
AR0005-011,MID ARKANSAS REGIONAL LIBRARY,202 EAST THIRD STREET,MALVERN,AR,72104,34.3640766,-92.8119517,5013325441,CE
AR0005-013,FOHRELL PUBLIC LIBRARY,186 DALLAS 208,SPARKMAN,AR,71763,33.9711884,-92.8669147,8706782561,BR
AR0005-015,MABEL BOSWELL MEMORIAL LIBRARY,201 NORTH PRICKETT ROAD,BRYANT,AR,72022,34.6094716,-92.4954633,5018472166,BR
AR0005-016,BOB HERZFELD MEMORIAL LIBRARY,1800 SMITHERS DRIVE,BENTON,AR,72015,34.5805867,-92.5698695,5017784766,BR
AR0006-004,GARLAND COUNTY LIBRARY,1427 MALVERN AVENUE,HOT SPRINGS,AR,71901,34.4983615,-93.0382025,5016234161,CE
AR0007-004,FULTON COUNTY LIBRARY- MAMMOTH SPRING,325 MAIN STREET,MAMMOTH SPRING,AR,72554,36.4957794,-91.5407527,8706253205,BR
AR0007-005,FULTON COUNTY LIBRARY- SALEM,131 SOUTH PICKREN STREET,SALEM,AR,72576,36.3705639,-91.8238024,8708952014,BR
AR0007-006,FULTON COUNTY LIBRARY-VIOLA,199 HWY 223,VIOLA,AR,72583,36.4790538,-91.9777311,8704583070,BR
AR0007-007,CLEBURNE COUNTY LIBRARY-GREERS FERRY,"8249 EDGEMONT ROAD, SUITE 9",GREERS FERRY,AR,72067,35.5668445,-92.1810738,5018258677,BR
AR0007-008,MARY I. WOLD CLEBURNE COUNTY LIBRARY,1009 WEST MAIN STREET,HEBER SPRINGS,AR,72543,35.4919859,-92.0390897,5013622477,BR
AR0007-009,CALICO ROCK BRANCH,301 2ND STREET,CALICO ROCK,AR,72519,36.1187898,-92.1336506,8702973785,BR
AR0007-010,HORSESHOE BEND BRANCH LIBRARY,9 CLUB ROAD,HORSESHOE BEND,AR,72512,36.2287826,-91.7642613,8706704318,BR
AR0007-011,MELBOURNE PUBLIC LIBRARY,1007 E. MAIN STREET,MELBOURNE,AR,72556,36.0590607,-91.8893297,8703687467,BR
AR0007-012,SHARP COUNTY LIBRARY-EVENING SHADE,227 WEST MAIN STREET,EVENING SHADE,AR,72532,36.0716079,-91.6190888,8702663873,BR
AR0007-013,SHARP COUNTY LIBRARY,201 CHURCH STREET,HARDY,AR,72542,36.3178011,-91.4860084,8708563934,BR
AR0007-014,SHARP COUNTY LIBRARY-WILLIFORD,6301 HWY 63,WILLIFORD,AR,72482,36.2808037,-91.3829822,8709664227,BR
AR0007-015,BESSIE BOEHM MOORE STONE COUNTY LIBRARY,326 WEST WASHINGTON STREET,MOUNTAIN VIEW,AR,72560,35.8691437,-92.121041,8702693100,BR
AR0007-017,SHARP COUNTY LIBRARY-CAVE CITY,133 SOUTH MAIN STREET,CAVE CITY,AR,72521,35.9404468,-91.5485479,8702836947,BR
AR0007-018,CLEBURNE COUNTY LIBRARY- QUITMAN,5904 HEBER SPRINGS ROAD WEST,QUITMAN,AR,72131,35.3841173,-92.2126701,5015892332,BR
AR0007-01,WHITE RIVER REGIONAL LIBRARY,"503 WEST MAIN STREET, SUITE 3",MOUNTAIN VIEW,AR,72560,35.8679292,-92.1230458,8702694682,CE
AR0008-002,PINE BLUFF JEFFERSON COUNTY LIBRARY SYSTEM,600 S. MAIN ST,PINE BLUFF,AR,71601,34.2216283,-92.0011333,8705344802,CE
AR0008-003,CARA MATHENY ECONOMOS/WHITE HALL PUBLIC LIBRARY,300 ANDERSON STREET,WHITE HALL,AR,71602,34.2763935,-92.0947854,8702475064,BR
AR0008-004,DAVE BURDICK WATSON CHAPEL PUBLIC LIBRARY,4120 SOUTH CAMDEN ROAD,PINE BLUFF,AR,71603,34.1870168,-92.0686403,8708793406,BR
AR0008-006,LEENITA GOBER COTHRAN MEMORIAL REDFIELD PUBLIC LIBRARY,310 BRODIE STREET,REDFIELD,AR,72132,34.4474822,-92.1844322,5013975070,BR
AR0008-007,ALTHEIMER PUBLIC LIBRARY,222 SOUTH EDLINE,ALTHEIMER,AR,72004,34.3156606,-91.8427109,8707668499,BR
AR0009-002,JONESBORO / CRAIGHEAD COUNTY PUBLIC LIBRARY,315 WEST OAK AVENUE,JONESBORO,AR,72401,35.8334781,-90.7074867,8709355133,CE
AR0009-003,CARAWAY PUBLIC LIBRARY,102B E. STATE ST.,CARAWAY,AR,72419,35.7581102,-90.3225735,8704823394,BR
AR0009-004,MC ADAMS PUBLIC LIBRARY,106 COBEAN BLVD,LAKE CITY,AR,72437,35.8205951,-90.4438823,8702374407,BR
AR0009-005,KOHN MEMORIAL LIBRARY,103 S EDMONDS ST,MONETTE,AR,72447,35.8902664,-90.3425906,8704862512,BR
AR0009-006,POINSETT COUNTY LIBRARY,200 N. EAST STREET,HARRISBURG,AR,72432,35.5635151,-90.7165802,8705784465,BR
AR0009-007,GOLDSBY LIBRARY,240 SOUTH GREENWOOD STREET,LEPANTO,AR,72354,35.611544,-90.3305375,-3,BR
AR0009-008,MARKED TREE PUBLIC LIBRARY,102 LOCUST,MARKED TREE,AR,72365,35.5303142,-90.4183348,8703583190,BR
AR0009-009,WEST POINSETT COUNTY LIBRARY,203 WEST 2ND STREET,WEINER,AR,72479,35.6200938,-90.9009136,8706842235,BR
AR0009-011,BROOKLAND PUBLIC LIBRARY,401 S. HOLMAN STREET,BROOKLAND,AR,72417,35.89961083,-90.58164696,8703335162,BR
AR0010-002,COLUMBIA COUNTY LIBRARY,2057 NORTH JACKSON,MAGNOLIA,AR,71753,33.2857292,-93.2351735,8702341991,CE
AR0010-004,TAYLOR PUBLIC LIBRARY,101 WEST POPE,TAYLOR,AR,71861,33.101129,-93.4619377,8706942051,BR
AR0011-002,FORT SMITH PUBLIC LIBRARY,3201 ROGERS AVENUE,FORT SMITH,AR,72903,35.3741837,-94.396515,4797830229,CE
AR0011-005,MILLER BRANCH LIBRARY,8701 S. 28TH ST.,FORT SMITH,AR,72908,35.3021245,-94.4051348,4796463945,BR
AR0011-006,DALLAS STREET BRANCH LIBRARY,8100 DALLAS STREET,FORT SMITH,AR,72903,35.3538153,-94.3423066,4794845650,BR
AR0011-007,WINDSOR DRIVE BRANCH LIBRARY,4701 WINDSOR DRIVE,FORT SMITH,AR,72904,35.4016412,-94.3786842,4797850405,BR
AR0012-004,ARKANSAS RIVER VALLEY REGIONAL LIBRARY,501 NORTH FRONT ST,DARDANELLE,AR,72834,35.2239676,-93.1552123,4792294418,CE
AR0012-005,YELL COUNTY LIBRARY,904 ATLANTA STREET,DANVILLE,AR,72833,35.0529853,-93.3923628,4794952911,BR
AR0012-006,JOHNSON COUNTY PUBLIC LIBRARY,2 TAYLOR CIRCLE,CLARKSVILLE,AR,72830,35.4691708,-93.4641956,4797543135,BR
AR0012-007,CHARLESTON PUBLIC LIBRARY,12 S SCHOOL STREET,CHARLESTON,AR,72933,35.297043,-94.0436812,4799652605,BR
AR0012-008,FRANKLIN COUNTY LIBRARY,407 WEST MARKET STREET,OZARK,AR,72949,35.488432,-93.8287471,4796672724,BR
AR0012-009,LOGAN COUNTY LIBRARY,419 N KENNEDY,BOONEVILLE,AR,72927,35.1416712,-93.9245998,4796752735,BR
AR0012-010,BOYD T. & MOLLIE GATTIS LOGAN COUNTY LIBRARY,100 EAST ACADEMY,PARIS,AR,72855,35.2900543,-93.7291156,4799632371,BR
AR0013-001,GREENE COUNTY LIBRARY,120 NORTH 12TH STREET,PARAGOULD,AR,72450,36.0572888,-90.5010257,8702368711,CE
AR0013-004,RANDOLPH COUNTY LIBRARY,111 WEST EVERETT ST.,POCAHONTAS,AR,72455,36.2619491,-90.9708627,8708925617,BR
AR0013-005,CORNING PUBLIC LIBRARY,613 PINE STREET,CORNING,AR,72422,36.4068216,-90.5838629,8708573453,BR
AR0013-006,PIGGOTT PUBLIC LIBRARY,361 W. MAIN STREET,PIGGOTT,AR,72454,36.3835936,-90.1932498,8705983666,BR
AR0013-007,RECTOR PUBLIC LIBRARY,121 W. 4TH STREET,RECTOR,AR,72461,36.2634445,-90.2937492,8705952410,BR
AR0014-007,DUMAS BRANCH LIBRARY,120 E. CHOCTAW,DUMAS,AR,71639,33.8883406,-91.4914423,8703825763,BR
AR0014-008,MCGEHEE BRANCH LIBRARY,211 NORTH 4TH STREET,MCGEHEE,AR,71654,33.6286168,-91.3999739,8702224097,BR
AR0014-013,STAR CITY PUBLIC LIBRARY,200 E. WILEY,STAR CITY,AR,71667,33.9402499,-91.8419966,8706284711,BR
AR014-014,WARREN BRANCH LIBRARY,115 W. CYPRESS,WARREN,AR,71671,33.6135705,-92.0655457,8702262536,BR
AR0014-016,SOUTHEAST ARKANSAS REGIONAL LIBRARY,114 W. JEFFERSON,MONTICELLO,AR,71655,33.6372671,-91.7902627,8703678584,CE
AR0014-017,LEONARD EVANS MEMORIAL LIBRARY,117 SOUTH FREEMAN STREET,DERMOTT,AR,71638,33.5253007,-91.4342202,8705383514,BR
AR0014-018,MARGARET TIBEL MEMORIAL LIBRARY,161 NORTH CHERRY STREET,EUDORA,AR,71640,33.1110117,-91.2645094,8703552450,BR
AR0014-020,LAKE VILLAGE BRANCH LIBRARY,108 CHURCH STREET,LAKE VILLAGE,AR,71653,33.3306011,-91.2823924,8702656116,BR
AR0014-021,HERMITAGE BRANCH LIBRARY,122 S. MAIN,HERMITAGE,AR,71647,33.4486469,-92.1744583,8704638962,BR
AR0014-024,MONTICELLO BRANCH LIBRARY,114 W. JEFFERSON AVE,MONTICELLO,AR,71655,33.6368613,-91.7902385,8703678583,BR
AR0015-003,PHILLIPS LEE MONROE REGIONAL LIBRARY SYSTEM,702 PORTER STREET,HELENA,AR,72342,34.5286572,-90.5915174,8703387732,CE
AR0015-004,MARVELL PUBLIC LIBRARY,806 CARRUTH STREET,MARVELL,AR,72366,34.5572405,-90.9134783,8708293183,BR
AR0015-005,ELAINE PUBLIC LIBRARY,126 MAIN STREET,ELAINE,AR,72333,34.3081671,-90.852735,8708276628,BR
AR0015-006,LEE COUNTY PUBLIC LIBRARY,77 WEST MAIN STREET,MARIANNA,AR,72360,34.7732589,-90.7602666,8702952688,BR
AR0015-007,MONROE COUNTY LIBRARY,270 MADISON ST,CLARENDON,AR,72029,34.6930067,-91.3123928,8707475593,BR
AR0016-002,NORTH LITTLE ROCK PUBLIC LIBRARY - WILLIAM F. LAMAN PUBLIC L,2801 ORANGE STREET,NORTH LITTLE ROCK,AR,72114,34.7804829,-92.2700223,5017581720,CE
AR0016-003,ARGENTA BRANCH,420 MAIN STREET,NORTH LITTLE ROCK,AR,72114,34.7578204,-92.2673562,5016871061,BR
AR0017-002,"FAULKNER-VAN BUREN REGIONAL LIBRARY, CONWAY",1900 TYLER STREET,CONWAY,AR,72032,35.1036149,-92.4501882,5013277482,CE
AR0017-003,"FAULKNER-VAN BUREN REGIONAL LIBRARY, CLINTON",289 FACTORY ROAD,CLINTON,AR,72031,35.5851654,-92.4468785,5017452100,BR
AR0017-006,"FAULKNER-VAN BUREN REGIONAL LIBRARY, VILONIA",3 BISE DRIVE,VILONIA,AR,72173,35.0847492,-92.200576,5017968520,BR
AR0017-007,"FAULKNER-VAN BUREN REGIONAL LIBRARY, GREENBRIER",13 WILSON FARM ROAD,GREENBRIER,AR,72058,35.2228662,-92.3853541,5016796344,BR
AR0017-008,"FAULKNER-VAN BUREN REGIONAL LIBRARY, MAYFLOWER",6 ASHMORE DRIVE,MAYFLOWER,AR,72106,34.9587208,-92.4245252,5014709678,BR
AR0017-009,"FAULKNER-VAN BUREN REGIONAL LIBRARY, TWIN GROVES",10 TWIN GROVES LANE,TWIN GROVES,AR,72039,35.3202726,-92.4341558,5013358088,BR
AR0017-011,"FAULKNER-VAN BUREN REGIONAL LIBRARY, DAMASCUS",17379 HWY 65,DAMASCUS,AR,72039,35.3685394,-92.4063835,5013358142,BR
AR0017-012,"FAULKNER-VAN BUREN REGIONAL LIBRARY, MOUNT VERNON",1370 HIGHWAY 36,MOUNT VERNON,AR,72111,35.2242477,-92.1239767,5018493080,BR
AR0019-002,LYDA MILLER PUBLIC LIBRARY,2609 HWY. 368 N.,BALD KNOB,AR,72010,35.307702,-91.5719884,5017245452,BR
AR0019-003,SEARCY PUBLIC LIBRARY,113 E. PLEASURE AVE.,SEARCY,AR,72143,35.247366,-91.7370708,5012682449,BR
AR0019-005,BALDWIN MEMORIAL LIBRARY,612 VAN BUREN,JUDSONIA,AR,72081,35.2730554,-91.6392392,5017293995,BR
AR0019-006,PANGBURN PUBLIC LIBRARY,914 MAIN STREET,PANGBURN,AR,72121,35.4262025,-91.8371162,5017284612,BR
AR0019-007,WHITE COUNTY REGIONAL LIBRARY SYSTEM,113 EAST PLEASURE AVENUE,SEARCY,AR,72143,35.247366,-91.7370708,5012792870,CE
AR0019-009,BRADFORD PUBLIC LIBRARY,302 W. WALNUT,BRADFORD,AR,72020,35.4243897,-91.4553785,5013442558,BR
AR0019-010,ROSE BUD PUBLIC LIBRARY,548A HWY. 5,ROSE BUD,AR,72137,35.3271666,-92.0854225,5015564447,BR
AR0019-011,GOFF PUBLIC LIBRARY,323 N. ELM ST,BEEBE,AR,72012,35.0714488,-91.8847412,5018823235,BR
AR0019-012,EL PASO COMMUNITY LIBRARY,1607 RIDGE ROAD,EL PASO,AR,72045,35.1262506,-92.0958964,5017965974,BR
AR0020-002,BARTON LIBRARY,200 E. 5TH ST.,EL DORADO,AR,71730,33.2220162,-92.6621801,8708635447,CE
AR0020-003,HUTTIG PUBLIC LIBRARY,204 FROST STREET,HUTTIG,AR,71747,33.0387951,-92.1836331,8709433411,BR
AR0020-004,HARPER MEMORIAL LIBRARY,300 NORTH MYRTLE,JUNCTION CITY,AR,71749,33.0168387,-92.7263562,8709245556,BR
AR0020-005,NORPHLET PUBLIC LIBRARY,101 EAST PADGETT STREET,NORPHLET,AR,71759,33.3159093,-92.6633125,8705462274,BR
AR0020-006,SMACKOVER PUBLIC LIBRARY,700 NORTH BROADWAY,SMACKOVER,AR,71762,33.3648159,-92.7251379,8707253741,BR
AR0020-007,STRONG PUBLIC LIBRARY,210 PINE ST.,STRONG,AR,71765,33.1098152,-92.3586109,8707972860,BR
AR0021-002,POPE COUNTY LIBRARY SYSTEM,116 EAST THIRD STREET,RUSSELLVILLE,AR,72801,35.2757637,-93.1327535,4799684368,CE
AR0021-003,ATKINS BRANCH CENTENNIAL LIBRARY,215 NORTH EAST FIRST STREET,ATKINS,AR,72823,35.2431871,-92.9354142,4796417904,BR
AR0021-004,DOVER BRANCH LIBRARY,80 LIBRARY ROAD,DOVER,AR,72837,35.3915782,-93.109557,4793312173,BR
AR0021-007,HECTOR BRANCH LIBRARY,11600 HIGHWAY 27 NORTH,HECTOR,AR,72843,35.4707591,-92.9753968,4792840907,BR
AR0023-002,SCOTT SEBASTIAN REGIONAL LIBRARY,18 N. ADAIR,GREENWOOD,AR,72936,35.2131161,-94.256777,4799962856,CE
AR0023-004,HARTFORD BRANCH LIBRARY,109 S. BROADWAY,HARTFORD,AR,72958,35.0214697,-94.3817195,4796392219,BR
AR0023-005,LAVACA BRANCH LIBRARY,100 S. DAVIS,LAVACA,AR,72941,35.3357144,-94.1751864,4796744355,BR
AR0023-006,MANSFIELD BRANCH LIBRARY,220 N. SEBASCOTT AVE,MANSFIELD,AR,72944,35.060052,-94.2507432,4792692037,BR
AR0023-007,SCOTT COUNTY LIBRARY,141 W. SECOND STREET,WALDRON,AR,72958,34.8992974,-94.0927164,4796373516,BR
AR0024-002,CROSS COUNTY LIBRARY,410 E. MERRIMAN AVE.,WYNNE,AR,72396,35.2241189,-90.7888227,8702383850,CE
AR0024-003,PARKIN BRANCH LIBRARY,122 WILSON ST,PARKIN,AR,72373,35.2698899,-90.5536043,-4,BR
AR0024-006,WOODRUFF COUNTY LIBRARY,201 MULBERRY STREET,AUGUSTA,AR,72006,35.2816936,-91.3666354,8703475331,BR
AR024-007,COTTON PLANT BRANCH LIBRARY,124 MAIN ST.,COTTON PLANT,AR,72036,35.004802,-91.2507046,8704591063,BR
AR0024-008,MCCRORY BRANCH LIBRARY,105 EAST SECOND ST.,MCCRORY,AR,72101,35.2573131,-91.198877,8707310150,BR
AR0025-001,WEST MEMPHIS PUBLIC LIBRARY,500 E. BROADWAY,WEST MEMPHIS,AR,72301,35.1481635,-90.1935332,8707327590,CE
AR0026-002,CROSSETT PUBLIC LIBRARY,1700 MAIN STREET,CROSSETT,AR,71635,33.1122085,-91.9578449,8703642230,BR
AR0026-003,ASHLEY COUNTY LIBRARY,211 EAST LINCOLN STREET,HAMBURG,AR,71646,33.2258569,-91.7960707,8708532078,CE
AR0027-002,W.A. BILLINGSLEY/JACKSON COUNTY LIBRARY,213 WALNUT STREET,NEWPORT,AR,72112,35.6047585,-91.2823566,8705232952,CE
AR0027-03,TUCKERMAN CITY LIBRARY,200 W MAIN,TUCKERMAN,AR,72473,35.7316246,-91.2000194,8703495313,BR
AR0028-002,TEXARKANA PUBLIC LIBRARY,600 W. 3RD ST.,TEXARKANA,AR,75501,33.4201866,-94.0487122,9037942149,CE
AR0030-002,CONWAY COUNTY LIBRARY,101 WEST CHURCH STREET,MORRILTON,AR,72110,35.1512853,-92.7454572,5013545204,CE
AR0031-002,LAWRENCE COUNTY LIBRARY,115 WEST WALNUT ST.,WALNUT RIDGE,AR,72476,36.068887,-90.9554308,8708863222,CE
AR0031-003,BOBBIE JEAN MEMORIAL LIBRARY,102 HENDRIX ST.,IMBODEN,AR,72434,36.1993677,-91.1690963,8708692093,BR
AR0031-004,DRIFTWOOD PUBLIC LIBRARY,28S HWY 25,LYNN,AR,72440,36.0069642,-91.2525246,8705283506,BR
AR0037-003,FORREST CITY PUBLIC LIBRARY,421 SOUTH WASHINGTON STREET,FORREST CITY,AR,72335,35.0063382,-90.7835971,8706335646,CE
AR0038-002,BENTONVILLE PUBLIC LIBRARY,405 SOUTH MAIN STREET,BENTONVILLE,AR,72712,36.3677087,-94.2085111,4792713192,CE
AR0039-004,BAXTER COUNTY LIBRARY,300 LIBRARY HILL,MOUNTAIN HOME,AR,72653,36.3150249,-92.3878634,8705800987,CE
AR0040-002,WOOLFOLK LIBRARY,100 NORTH CURRIE STREET,MARION,AR,72364,35.2153562,-90.1983518,8707393238,BR
AR0040-003,EARLE PUBLIC LIBRARY,703 COMMERCE STREET,EARLE,AR,72331,35.2710732,-90.4655552,8707928500,BR
AR0040-004,GILMORE BRANCH LIBRARY,187 FRONT STREET,GILMORE,AR,72339,35.4145825,-90.2822764,8703432697,BR
AR0040-006,TURRELL BRANCH LIBRARY,52 FLIPPO ST,TURRELL,AR,72384,35.3749273,-90.2576708,8703434005,BR
AR0040-007,CRAWFORDSVILLE PUBLIC LIBRARY,5444 N. MAIN STREET,CRAWFORDSVILLE,AR,72327,35.22657,-90.3264,8708235204,BR
AR0040-008,MISSISSIPPI COUNTY LIBRARY SYSTEM,200 NORTH FIFTH STREET,BLYTHEVILLE,AR,72315,35.9290023,-89.9086992,8707622431,CE
AR0040-009,KEISER PUBLIC LIBRARY,112 EAST MAIN STREET,KEISER,AR,72351,35.6751128,-90.0970289,8705262073,BR
AR0040-010,LEACHVILLE PUBLIC LIBRARY,105 SOUTH MAIN STREET,LEACHVILLE,AR,72438,35.9375045,-90.2583015,8705396485,BR
AR0040-011,MANILA PUBLIC LIBRARY,103 NORTH DEWEY STREET,MANILA,AR,72442,35.8788087,-90.1669456,8705613525,BR
AR0040-012,OSCEOLA PUBLIC LIBRARY,320 WEST HALE AVENUE,OSCEOLA,AR,72370,35.7031169,-89.9712461,8705632721,BR
AR0040-013,WILSON PUBLIC LIBRARY,1 PARK STREET,WILSON,AR,72395,35.5685506,-90.0418697,8706558414,BR
AR0040-015,HORSESHOE LAKE BRANCH LIBRARY,3181 HORSESHOE CIRCLE,HORSESHOE LAKE,AR,72438,34.9150977,-90.3088271,8703393862,BR
AR0040-019,EDMONDSON PUBLIC LIBRARY,61 WATERFORD STREET,EDMONDSON,AR,72332,35.1027431,-90.3082715,8707328532,BR
AR0041-002,MARJORIE WALKER MC CRARY MEMORIAL LIBRARY,204 EAST SECOND STREET,LONOKE,AR,72086,34.785284,-91.8988755,8555726657,BR
AR0041-003,ARLENE CHERRY MEMORIAL LIBRARY,909 WEST MAIN STREET,CABOT,AR,72023,34.9759799,-92.0246976,8555726657,BR
AR0041-004,CARLISLE PUBLIC LIBRARY,105 EAST FIFTH STREET,CARLISLE,AR,72024,34.7865454,-91.7462144,8555726657,BR
AR0041-005,WILLIAM F. FOSTER MEMORIAL LIBRARY,100 E. TAYLOR,ENGLAND,AR,72046,34.5400779,-91.9668253,8555726657,BR
AR0041-01,LONOKE COUNTY LIBRARY SYSTEM,204 E. SECOND ST.,LONOKE,AR,72086,34.785284,-91.8988755,8555726657,CE
AR0042-002,ARKANSAS COUNTY LIBRARY,2002 S. BUERKLE STREET,STUTTGART,AR,72160,34.4827655,-91.5588479,8706731966,CE
AR0042-003,DEWITT PUBLIC LIBRARY,205 WEST MAXWELL STREET,DEWITT,AR,72042,34.2973827,-91.3364546,-4,BR
AR0042-004,CLEON COLLIER MEMORIAL LIBRARY,211 W MAIN STREET,GILLETT,AR,72055,34.117139,-91.3796066,-4,BR
AR0043-002,TRUMANN PUBLIC LIBRARY,1200 WEST MAIN,TRUMANN,AR,72472,35.6713868,-90.5225911,8704837744,CE
AR0044-002,BELLA VISTA PUBLIC LIBRARY,11 DICKENS PLACE,BELLA VISTA,AR,72714,36.4734906,-94.2428861,4798551753,CE
AR0047-001,ROGERS PUBLIC LIBRARY,711 S. DIXIELAND ROAD,ROGERS,AR,72758,36.3281028,-94.1430672,4796211152,CE
AR0048-001,ALMA PUBLIC LIBRARY,624 FAYETTEVILLE AVENUE,ALMA,AR,72921,35.4781593,-94.2214424,4796324140,BR
AR0048-002,CEDARVILLE PUBLIC LIBRARY,737 PIRATE`S WAY,CEDARVILLE,AR,72932,35.5713157,-94.3669291,4794101853,BR
AR0048-003,MOUNTAINBURG PUBLIC LIBRARY,1300 HIGHWAY 71 NE,MOUNTAINBURG,AR,72946,35.6443901,-94.1622498,4793691600,BR
AR0048-004,MULBERRY PUBLIC LIBRARY,220 MAIN STREET,MULBERRY,AR,72947,35.4973692,-94.0519046,4799971226,BR
AR0048-005,CRAWFORD COUNTY LIBRARY SYSTEM,1409 MAIN ST.,VAN BUREN,AR,72956,35.4366734,-94.3444302,4794713226,CE
AR0048-006,VAN BUREN PUBLIC LIBRARY,1409 MAIN ST.,VAN BUREN,AR,72956,35.4366734,-94.3444302,4794746045,BR
AR0049-001,CARROLL AND MADISON LIBRARY SYSTEM ADMINISTRATION OFFICE,106 SPRING STREET,BERRYVILLE,AR,72616,36.3635633,-93.5682549,8704235300,CE
AR0049-002,EUREKA SPRINGS CARNEGIE LIBRARY,194 SPRING STREET,EUREKA SPRINGS,AR,72632,36.40744,-93.7366859,4792538754,BR
AR0049-003,GREEN FOREST PUBLIC LIBRARY,206 EAST MAIN STREET,GREEN FOREST,AR,72638,36.3354198,-93.4342778,8704386700,BR
AR0049-004,MADISON COUNTY LIBRARY,827 N. COLLEGE AVE.,HUNTSVILLE,AR,72740,36.0949897,-93.7370536,4797382754,BR
AR0049-005,KINGSTON COMMUNITY LIBRARY,120 MADISON 2605,KINGSTON,AR,72742,36.050376,-93.517775,4796652745,BR
AR0049-006,ST. PAUL PUBLIC LIBRARY,145 FIFTH STREET,ST. PAUL,AR,72760,35.824042,-93.764473,4796772907,BR
AR0049-007,BERRYVILLE PUBLIC LIBRARY,104 SPRING STREET,BERRYVILLE,AR,72616,36.3641069,-93.5687806,8704232323,BR
AR0050-001,BOONE COUNTY LIBRARY,221 W. STEPHENSON AVE,HARRISON,AR,72601,36.2300092,-93.1095998,8707415913,CE
AR0051-001,NEWTON COUNTY LIBRARY,230 S. STONE,JASPER,AR,72641,36.003429,-93.1858013,8704462983,CE
AR0060-001,CLARK COUNTY LIBRARY,609 CADDO STREET,ARKADELPHIA,AR,71923,34.1207838,-93.0540484,8702462271,CE
AR0060-002,CABE PUBLIC LIBRARY,204 EAST WALNUT,GURDON,AR,71743,33.9199066,-93.1510074,8703532911,BR
AR0061-001,LAFAYETTE COUNTY LIBRARY,219 E. THIRD STREET,LEWISVILLE,AR,71845,33.3570121,-93.5756515,8709214757,CE
AR0061-003,CABE MEMORIAL PUBLIC LIBRARY,312 MAIN STREET,STAMPS,AR,71860,33.3614094,-93.4973907,-4,BR
AR0062-002,POLK COUNTY LIBRARY,410 8TH STREET,MENA,AR,71953,34.5846643,-94.2406837,4793942314,BR
AR0062-003,MONTGOMERY COUNTY LIBRARY,145A WHITTINGTON ST.,MT. IDA,AR,71957,34.5562581,-93.6331064,8708673812,BR
AR0063-001,PUBLIC LIBRARY OF CAMDEN & OUACHITA COUNTY,405 CASH RD,CAMDEN,AR,71701,33.580385,-92.8508011,8708365083,CE
AR0063-003,STEPHENS PUBLIC LIBRARY,315 W. CHERT,STEPHENS,AR,71764,33.4139164,-93.0712506,-4,BR
AR0064-002,THORNTON PUBLIC LIBRARY,820 SOUTH 2ND STREET,THORNTON,AR,71766,33.7759933,-92.491499,8703525990,BR
AR0064-003,CALHOUN COUNTY LIBRARY,115 SOUTH SECOND STREET,HAMPTON,AR,71744,33.5376053,-92.4715362,8707984492,CE
AR0066-001,FAYETTEVILLE PUBLIC LIBRARY,401 W. MOUNTAIN STREET,FAYETTEVILLE,AR,72701,36.0615445,-94.1649986,4798567000,CE
AR0068-001,PEA RIDGE COMMUNITY LIBRARY,801 N CURTIS,PEA RIDGE,AR,72751,36.4488248,-94.1158532,4794518442,CE
AR0069-001,GRAVETTE PUBLIC LIBRARY,119 MAIN STREET SE,GRAVETTE,AR,72736,36.4221807,-94.4523596,4797876955,CE
AR0070-001,JIM G. FERGUSON SEARCY COUNTY LIBRARY,202 EAST MAIN STREET,MARSHALL,AR,72650,35.9090623,-92.6295233,8704482420,CE
AR0071-001,"FAIRFIELD BAY LIBRARY, INCORPORATED",369 DAVE CREEK PARKWAY,FAIRFIELD BAY,AR,72088,35.6100914,-92.2622716,-4,CE
AR0076-001,HEMPSTEAD COUNTY LIBRARY,500 SOUTH ELM STREET,HOPE,AR,71801,33.6644937,-93.5922289,8707774564,CE
AR0077-001,GENTRY PUBLIC LIBRARY,105 E MAIN ST,GENTRY,AR,72734,36.2673934,-94.4846525,4797362054,CE
AR0078-001,IVA JANE PEEK PUBLIC LIBRARY,121 N. MAIN STREET,DECATUR,AR,72722,36.3359072,-94.4609279,4797527323,CE
AR0079-001,SILOAM SPRINGS PUBLIC LIBRARY,205 EAST JEFFERSON ST.,SILOAM SPRINGS,AR,72761,36.1817289,-94.5403844,4795244236,CE
AR0080-001,SULPHUR SPRINGS PUBLIC LIBRARY HQ,512 BLACK ST.,SULPHUR SPRINGS,AR,72768,36.4775694,-94.4612874,4792983218,CE
AR0081-001,ASHDOWN COMMUNITY LIBRARY,160 E. COMMERCE ST.,ASHDOWN,AR,71822,33.6746677,-94.1294834,8708983233,BR
AR0081-002,HOWARD COUNTY PUBLIC LIBRARY,"426 N. MAIN ST., SUITE 5",NASHVILLE,AR,71852,33.9478246,-93.8465103,8708452566,BR
AR0081-003,DE QUEEN LIBRARY,200 WEST STILLWELL,DE QUEEN,AR,71832,34.0369655,-94.3393864,8705844364,BR
AR0081-004,DIERKS PUBLIC LIBRARY,202 W. 3RD,DIERKS,AR,71833,34.1193581,-94.0182497,8702863228,BR
AR0081-005,FOREMAN PUBLIC LIBRARY,216 SCHUMAN ST.,FOREMAN,AR,71836,33.7220223,-94.3969414,8705422740,BR
AR0081-006,GILLHAM BRANCH LIBRARY,102 N. 2ND ST.,GILLHAM,AR,71841,34.1702773,-94.3138326,8703865665,BR
AR0081-007,HORATIO GARNER MEMORIAL LIBRARY,108 MAIN STREET,HORATIO,AR,71842,33.9382376,-94.3580736,8708326882,BR
AR0081-008,LOCKESBURG BRANCH LIBRARY,112 EAST MAIN,LOCKESBURG,AR,71846,33.9672265,-94.1675733,8702892233,BR
AR0081-009,MINERAL SPRINGS PUBLIC LIBRARY,313 EAST RUNNELS,MINERAL SPRINGS,AR,71851,33.8751967,-93.9144223,8702877162,BR
AR0081-010,TOLLETTE BRANCH LIBRARY,205 TOWN HALL DR.,TOLLETTE,AR,71851,33.8152713,-93.8995771,8702877166,BR
AR0081-011,WINTHROP PUBLIC LIBRARY,720 HIGH ST.,WINTHROP,AR,71866,33.8319434,-94.3520886,8703817580,BR
AR0081-012,TRI COUNTY REGIONAL LIBRARY SYSTEM,200 W. STILWELL AVE.,DE QUEEN,AR,71832,34.0369655,-94.3393864,8705844364,CE
AR0082-001,INDEPENDENCE COUNTY LIBRARY,367 EAST MAIN STREET,BATESVILLE,AR,72501,35.7715314,-91.6514863,8707938814,CE
AR0083-001,PRAIRIE COUNTY LIBRARY,201 US HWY 70 EAST,HAZEN,AR,72064,34.7801769,-91.5789646,8702553570,CE
AR0083-002,DES ARC PUBLIC LIBRARY,408 CURRAN STREET,DES ARC,AR,72040,34.9751608,-91.4970894,8702561456,BR
AR0083-003,DEVALLS BLUFF PUBLIC LIBRARY,173 MARKET STREET,DEVALLS BLUFF,AR,72041,34.7845828,-91.4624565,8709981315,BR
OFU CC,OFU COMMUNITY CENTER,OFU ISLAND,OFU,AS,96799,-14.1756387,-169.6586485,6846559050,BR
FBPL,FELETI BARSTOW PUBLIC LIBRARY,997687 UTULEI ROAD,PAGO PAGO,AS,96799,-14.2820468,-170.6840184,6846335816,CE
BR-ALPINE,ALPINE PUBLIC LIBRARY,17 CR 2061,ALPINE,AZ,85920,33.8475299,-109.1401426,9283394925,BR
BR-CONCHO,CONCHO PUBLIC LIBRARY,18 CR 5101,CONCHO,AZ,85924,34.4222225,-109.6390654,9283372167,BR
BR-GREER,GREER MEMORIAL LIBRARY,74 A CR 1120,GREER,AZ,85927,34.0076763,-109.4583168,9287357710,BR
BR-SANDERS,SANDERS PUBLIC LIBRARY,I-40 EXIT 339 N FRONTAGE RD E,SANDERS,AZ,86512,35.2185123,-109.3322687,9286882677,BR
BR-ROUND,ROUND VALLEY PUBLIC LIBRARY,179 S MAIN ST,EAGAR,AZ,85925,34.1078784,-109.2915407,9283334694,BR
BR-STJOHNS,ST. JOHNS PUBLIC LIBRARY,35 S 3RD W,ST. JOHNS,AZ,85936,34.5062188,-109.3693868,9283374405,BR
BR-VERNON,VERNON PUBLIC LIBRARY,26 CR 3142,VERNON,AZ,85940,34.2550012,-109.6927764,9285325005,BR
BR-JIMMIE,JIMMIE LIBHART BRANCH LIBRARY,201 N CENTRAL AVE,BOWIE,AZ,85605,32.3272672,-109.4867515,5208472522,BR
BR-MYRTLE,MYRTLE KRAFT LIBRARY,2393 S ROCK HOUSE RD,PORTAL,AZ,85632,31.912132,-109.1424096,5205582468,BR
BR-ALICE,ALICE WOODS SUNIZONA LIBRARY,ASH CREEK SCHOOL - 6460 E HWY,PEARCE,AZ,85625,31.879005,-109.644155,5208243340,BR
BR-SUNSITES,SUNSITES COMMUNITY LIBRARY,210 N FORD RD,PEARCE,AZ,85625,31.9394272,-109.8328741,5208263866,BR
BR-ELFRIDA,ELFRIDA LIBRARY,10552 N HWY 191,ELFRIDA,AZ,85610,31.696677,-109.6872775,5206421744,BR
CE-COCHISE,COCHISE COUNTY LIBRARY DISTRICT HEADQUARTERS,1415 W MELODY LN BLDG C,BISBEE,AZ,85603,31.4432451,-109.9166159,5204328930,CE
CE-CLIFTON,CLIFTON PUBLIC LIBRARY,588 TURNER AVE,CLIFTON,AZ,85533,33.0464309,-109.2900848,9288652461,CE
CE-SAFFORD,SAFFORD CITY-GRAHAM COUNTY LIBRARY,808 S 7TH AVE,SAFFORD,AZ,85546,32.8309392,-109.7150165,9284324165,CE
CE-PARKER,PARKER PUBLIC LIBRARY,1001 S NAVAJO AVE,PARKER,AZ,85344,34.147686,-114.2952264,9286692622,CE
BR-AGUILA,AGUILA BRANCH LIBRARY,51300 W U.S. 60,AGUILA,AZ,85320,33.9430578,-113.1724484,6026523000,BR
BR-MIRAGE,EL MIRAGE BRANCH LIBRARY,14011 N 1ST AVE,EL MIRAGE,AZ,85335,33.611451,-112.3258925,6026523000,BR
BR-FOUNTAIN,FOUNTAIN HILLS BRANCH LIBRARY,12901 N LA MONTANA DR,FOUNTAIN HILLS,AZ,85268,33.6039424,-111.7220526,6026523000,BR
BR-GUADALUPE,GUADALUPE BRANCH LIBRARY,9241 S AVENIDA DEL YAQUI,GUADALUPE,AZ,85283,33.362674,-111.9630925,6026523000,BR
BR-LITCHFIELD,LITCHFIELD PARK BRANCH LIBRARY,101 W WIGWAM BLVD,LITCHFIELD PARK,AZ,85340,33.4932815,-112.3582971,6026523000,BR
BR-QUEEN,QUEEN CREEK BRANCH LIBRARY,21802 S ELLSWORTH RD,QUEEN CREEK,AZ,85242,33.250255,-111.6376725,6026523000,BR
BR-HOLLYHOCK,HOLLYHOCK BRANCH LIBRARY,15844 N HOLLYHOCK ST,SURPRISE,AZ,85374,33.6282622,-112.3312387,6026523000,BR
BR-GILABEND,GILA BEND BRANCH LIBRARY,777 N LOGAN AVE,GILA BEND,AZ,85337,32.9496151,-112.7187246,6026523000,BR
BR-EDROBSON,ED ROBSON BRANCH LIBRARY,9330 E RIGGS RD,SUN LAKES,AZ,85248,33.2180383,-111.8816379,6026523000,BR
BR-SOUTHEAST,SOUTHEAST REGIONAL LIBRARY,775 N GREENFIELD RD,GILBERT,AZ,85234,33.3637413,-111.7374959,6026523000,BR
BR-NVALLEY,NORTH VALLEY REGIONAL LIBRARY,40410 N GAVILAN PEAK PARKWAY,ANTHEM,AZ,85086,33.8517934,-112.1389506,6026523000,BR
BR-NORTHWEST,NORTHWEST REGIONAL LIBRARY,16089 N BULLARD AVE,SURPRISE,AZ,85374,33.6298142,-112.3765711,6026523000,BR
BR-PERRY,PERRY BRANCH LIBRARY,1965 E QUEEN CREEK RD,GILBERT,AZ,85296,33.2624712,-111.7475174,6026523000,BR
BR-GOODYEAR,GOODYEAR BRANCH LIBRARY,14455 W VAN BUREN ST C-101,GOODYEAR,AZ,85338,33.4497899,-112.3699695,6026523000,BR
BR-SUNCITY,SUN CITY BRANCH LIBRARY,16828 N 99TH AVE,SUN CITY,AZ,85351,33.6360359,-112.2737033,6026523000,BR
BR-FAIRWAY,FAIRWAY BRANCH LIBRARY,10600 W PEORIA AVE,SUN CITY,AZ,85351,33.5803275,-112.288426,6026523000,BR
BR-WHITETANK,WHITE TANK BRANCH LIBRARY,20304 W WHITE TANK MOUNTAIN BLVD,WADDELL,AZ,85355,33.5661074,-112.4962999,6026523000,BR
BR-ASANTE,ASANTE BRANCH LIBRARY,16755 W VEREDA SOLANA DR,SURPRISE,AZ,85378,33.6993819,-112.4199133,6026523000,BR
BR-GARCIA,SAM GARCIA WESTERN AVENUE LIBRARY,495 E WESTERN AVE,AVONDALE,AZ,85323,33.4353026,-112.344418,6233332601,BR
CE-AVONCIVIC,CIVIC CENTER LIBRARY,11350 W CIVIC CTR DR,AVONDALE,AZ,85323,33.4455918,-112.3021706,6233332602,CE
BR-BUCKEYE,BUCKEYE PUBLIC LIBRARY - DOWNTOWN,310 N 6TH ST,BUCKEYE,AZ,85326,33.3728218,-112.5831785,6233496300,BR
CE-BUCKEYE,BUCKEYE PUBLIC LIBRARY - COYOTE BRANCH,21699 W YUMA RD STE 116,BUCKEYE,AZ,85326,33.4343598,-112.5174093,6233496300,CE
CE-CHANDLER,DOWNTOWN LIBRARY,22 S DELAWARE ST,CHANDLER,AZ,85225,33.3026367,-111.8375182,4807822800,CE
BR-HAMILTON,HAMILTON LIBRARY,3700 S ARIZONA AVE,CHANDLER,AZ,85248,33.253006,-111.84356,4807822800,BR
BR-SUNSET,SUNSET LIBRARY,4930 W RAY RD,CHANDLER,AZ,85226,33.3200575,-111.925134,4807822800,BR
BR-BASHA,BASHA LIBRARY,5990 S VAL VISTA DR,CHANDLER,AZ,85249,33.221075,-111.758759,4807822800,BR
CE-GLENDALE,GLENDALE MAIN LIBRARY,5959 W BROWN ST,GLENDALE,AZ,85302,33.578278,-112.1871816,6239303580,CE
BR-VELMA,VELMA TEAGUE BRANCH LIBRARY,7010 N 58TH AVE,GLENDALE,AZ,85301,33.539274,-112.1837375,6239303441,BR
BR-MFOOTHILLS,FOOTHILLS BRANCH LIBRARY,19055 N 57TH AVE,GLENDALE,AZ,85308,33.6593819,-112.180495,6239303840,BR
BR-HEROES,HEROES REGIONAL PARK LIBRARY,6075 N 83RD AVE,GLENDALE,AZ,85303,33.526465,-112.2376525,6239304466,BR
BR-DOBSON,DOBSON RANCH LIBRARY,2425 S DOBSON RD,MESA,AZ,85202,33.3712372,-111.8800135,4806443100,BR
BR-REDMTN,CITY OF MESA RED MOUNTAIN LIBRARY,635 N POWER RD,MESA,AZ,85205,33.427934,-111.6844004,4806443100,BR
CE-MESA,MESA PUBLIC LIBRARY,64 E 1ST ST,MESA,AZ,85201,33.4172675,-111.829449,4806443100,CE
CE-BURTON,BURTON BARR CENTRAL LIBRARY,1221 N CENTRAL AVE,PHOENIX,AZ,85004,33.4632464,-112.0737106,6022624636,CE
BR-ACACIA,ACACIA LIBRARY,750 E TOWNLEY AVE,PHOENIX,AZ,85020,33.5659775,-112.06309,6022624636,BR
BR-CENTURY,CENTURY LIBRARY,1750 E HIGHLAND AVE,PHOENIX,AZ,85016,33.5056547,-112.0434145,6022624636,BR
BR-CHOLLA,CHOLLA LIBRARY,10050 METRO PARKWAY E,PHOENIX,AZ,85051,33.5784844,-112.1189612,6022624636,BR
BR-HARMON,HARMON LIBRARY,1325 S 5TH AVE,PHOENIX,AZ,85003,33.4348603,-112.0804013,6022624636,BR
BR-JUNIPER,JUNIPER LIBRARY,1825 W UNION HILLS DR,PHOENIX,AZ,85027,33.6546825,-112.098322,6022624636,BR
BR-MESQUITE,MESQUITE LIBRARY,4525 PARADISE VILLAGE PARKWAY N,PHOENIX,AZ,85032,33.6049176,-111.9836083,6022624636,BR
BR-OCOTILLO,OCOTILLO LIBRARY,102 W SOUTHERN AVE,PHOENIX,AZ,85041,33.3922675,-112.074768,6022624636,BR
BR-VERDE,PALO VERDE LIBRARY,4402 N 51ST AVE,PHOENIX,AZ,85031,33.500357,-112.172436,6022624636,BR
BR-SAGUARO,SAGUARO LIBRARY,2808 N 46TH ST,PHOENIX,AZ,85008,33.4787104,-111.9826039,6022624636,BR
BR-YUCCA,YUCCA LIBRARY,5648 N 15TH AVE,PHOENIX,AZ,85015,33.519823,-112.0912013,6022624636,BR
BR-IRONWOOD,IRONWOOD LIBRARY,4333 E CHANDLER BLVD,PHOENIX,AZ,85048,33.3051269,-111.9895001,6022624636,BR
BR-SAGE,DESERT SAGE LIBRARY,7602 W ENCANTO BLVD,PHOENIX,AZ,85035,33.4728989,-112.2233139,6022624636,BR
BR-BROOM,DESERT BROOM LIBRARY,29710 N CAVE CREEK RD,PHOENIX,AZ,85331,33.753173,-111.9923142,6022624636,BR
BR-CESAR,CESAR CHAVEZ LIBRARY,3635 W BASELINE RD,PHOENIX,AZ,85339,33.3775525,-112.138584,6022624636,BR
BR-AGAVE,AGAVE LIBRARY,23550 N 36TH AVE,PHOENIX,AZ,85310,33.6993069,-112.1392356,6022624636,BR
BR-SMOUNTAIN,SOUTH MOUNTAIN COMMUNITY LIBRARY,7050 S 24TH ST,PHOENIX,AZ,85042,33.382745,-112.034438,6022624636,BR
CE-SCOTTCIVIC,SCOTTSDALE CIVIC CENTER LIBRARY,3839 N DRINKWATER BLVD,SCOTTSDALE,AZ,85251,33.4920781,-111.9216392,4803127323,CE
BR-MUSTANG,MUSTANG LIBRARY,10101 N 90TH ST,SCOTTSDALE,AZ,85258,33.5773087,-111.8857539,4803127323,BR
BR-ARABIAN,ARABIAN LIBRARY,10215 E MCDOWELL MOUNTAIN RANCH,SCOTTSDALE,AZ,85255,33.625609,-111.864655,4803127323,BR
BR-APPALOOSA,APPALOOSA LIBRARY,7377 E SILVERSTONE DR,SCOTTSDALE,AZ,85255,33.695419,-111.9223413,4803127323,BR
CE-TEMPE,TEMPE PUBLIC LIBRARY,3500 S RURAL RD,TEMPE,AZ,85282,33.3912979,-111.9263954,4803505500,CE
CE-TOLLESON,TOLLESON PUBLIC LIBRARY,9055 W VAN BUREN ST,TOLLESON,AZ,85353,33.4502525,-112.266283,6239362746,CE
CE-WICKENBURG,WICKENBURG PUBLIC LIBRARY AND LEARNING CENTER,164 E APACHE ST,WICKENBURG,AZ,85390,33.9701933,-112.7298346,9286842665,CE
BR-BULLHEAD,BULLHEAD CITY BRANCH LIBRARY,1170 E HANCOCK RD,BULLHEAD CITY,AZ,86442,35.1079217,-114.6061024,9287580714,BR
BR-HAVASU,LAKE HAVASU BRANCH LIBRARY,1770 N MCCULLOCH BLVD,LAKE HAVASU CITY,AZ,86403,34.4769423,-114.3396809,9284530718,BR
BR-MEADVIEW,MEADVIEW COMMUNITY LIBRARY,149 E MEADVIEW BLVD,MEADVIEW,AZ,86444,36.0022356,-114.0664827,9285642535,BR
BR-DOLAN,DOLAN SPRINGS LIBRARY,16140 PIERCE FERRY RD,DOLAN SPRINGS,AZ,86441,35.5929409,-114.270148,9287674292,BR
BR-GSHORES,GOLDEN SHORES/TOPOCK COMMUNITY LIBRARY,13136 S GOLDEN SHORES PARKWAY,TOPOCK,AZ,86436,34.7760923,-114.4827535,9287682235,BR
BR-SMOHAVE,SOUTH MOHAVE VALLEY COMMUNITY LIBRARY,5744 HWY 95 STE 102,FORT MOHAVE,AZ,86426,34.989944,-114.5979726,9287681151,BR
BR-KINGMAN,KINGMAN BRANCH LIBRARY,3269 N BURBANK ST,KINGMAN,AZ,86409,35.218947,-114.0291575,9286922665,CE
BR-CHLORIDE,CHLORIDE COMMUNITY LIBRARY,4901 PAY ROLL,CHLORIDE,AZ,86431,35.4128037,-114.1970645,9285652200,BR
BR-VALLE,VALLE VISTA COMMUNITY LIBRARY,7264 CONCHO DR STE B,KINGMAN,AZ,86401,35.3828945,-113.8555269,9286927662,BR
BR-GVALLEY,GOLDEN VALLEY COMMUNITY LIBRARY,3417 N VERDE RD,GOLDEN VALLEY,AZ,86413,35.2259862,-114.2185008,9285652989,BR
CE-WHITERIVER,WHITERIVER PUBLIC LIBRARY,100 E WALNUT ST,WHITERIVER,AZ,85941,33.8372691,-109.9638413,9285943164,CE
BR-CIBECUE,CIBECUE COMMUNITY LIBRARY,6 W 3RD ST,CIBECUE,AZ,85911,34.0511609,-110.4856599,9285326240,BR
BR-MCNARY,MCNARY COMMUNITY LIBRARY,208 W PINE ST,MCNARY,AZ,85930,34.07458,-109.861,9285943164,BR
CE-PINAL,PINAL COUNTY LIBRARY DISTRICT,92 W BUTTE AVE,FLORENCE,AZ,85132,33.0313909,-111.3882612,5208666457,CE
BR-AZCITY,ARIZONA CITY COMMUNITY LIBRARY,13254 SUNLAND GIN RD,ARIZONA CITY,AZ,85123,32.759971,-111.6711275,5208667740,BR
BR-SANMANUEL,SAN MANUEL PUBLIC LIBRARY,108 5TH AVE,SAN MANUEL,AZ,85631,32.6092229,-110.6336803,5203854470,BR
BR-SANTAN,SAN TAN VALLEY LIBRARY,31505 N SCHNEPF RD,SAN TAN VALLEY,AZ,85143,33.16507,-111.518,5208668035,BR
BR-SALAZAR,SALAZAR-AJO BRANCH LIBRARY,15 W PLAZA ST #179,AJO,AZ,85321,32.3728984,-112.8618088,5203876075,BR
BR-CAVIGLIA,CAVIGLIA-ARIVACA BRANCH LIBRARY,17050 W ARIVACA RD,ARIVACA,AZ,85601,31.5753993,-111.3269277,5205945235,BR
BR-DEWHIRST,DEWHIRST-CATALINA BRANCH LIBRARY,15631 N ORACLE RD #199,CATALINA,AZ,85739,32.4911381,-110.9248701,5205945240,BR
BR-ECKSTROM,ECKSTROM-COLUMBUS BRANCH LIBRARY,4350 E 22ND ST,TUCSON,AZ,85711,32.20688,-110.9003417,5205945285,BR
BR-ELPUEBLO,EL PUEBLO BRANCH LIBRARY,101 W IRVINGTON RD,TUCSON,AZ,85714,32.1632306,-110.9694247,5205945250,BR
BR-ELRIO,EL RIO BRANCH LIBRARY,1390 W SPEEDWAY BLVD,TUCSON,AZ,85745,32.238708,-110.998077,5205945245,BR
BR-JOYNER,JOYNER-GREEN VALLEY BRANCH LIBRARY,601 N LA CANADA DR,GREEN VALLEY,AZ,85614,31.880739,-110.9950275,5205945295,BR
BR-HIMMEL,HIMMEL PARK BRANCH LIBRARY,1035 N TREAT AVE,TUCSON,AZ,85716,32.233703,-110.9311255,5205945305,BR
BR-MISSION,MISSION BRANCH LIBRARY,3770 S MISSION RD,TUCSON,AZ,85713,32.1821893,-111.0072981,5205945325,BR
BR-NANINI,NANINI BRANCH LIBRARY,7300 N SHANNON RD,TUCSON,AZ,85741,32.340002,-111.02734,5205945365,BR
BR-SAMLENA,SAM LENA - SOUTH TUCSON BRANCH LIBRARY,1607 S 6TH AVE,TUCSON,AZ,85713,32.2026226,-110.9679824,5205945265,BR
BR-VALENCIA,VALENCIA BRANCH LIBRARY,202 W VALENCIA RD,TUCSON,AZ,85706,32.1341455,-110.9724984,5205945390,BR
BR-MURPHY,MURPHY-WILMOT BRANCH LIBRARY,530 N WILMOT RD,TUCSON,AZ,85711,32.227905,-110.8578325,5205945420,BR
BR-WOODS,WOODS MEMORIAL BRANCH LIBRARY,3455 N 1ST AVE,TUCSON,AZ,85719,32.269847,-110.9610675,5205945445,BR
BR-DUSENBERRY,DUSENBERRY-RIVER BRANCH LIBRARY,5605 E RIVER RD #105,TUCSON,AZ,85750,32.2734742,-110.8730752,5205945345,BR
BR-KIRKBEAR,KIRK-BEAR CANYON BRANCH LIBRARY,8959 E TANQUE VERDE RD,TUCSON,AZ,85749,32.2582175,-110.80146,5205945275,BR
CE-JOEL,JOEL D. VALDEZ MAIN LIBRARY,101 N STONE AVE,TUCSON,AZ,85701,32.2234995,-110.9715422,5205945500,CE
BR-MILLER,MILLER-GOLF LINKS BRANCH LIBRARY,9640 E GOLF LINKS RD,TUCSON,AZ,85730,32.1917042,-110.7871013,5205945355,BR
BR-SANTAROSA,SANTA ROSA BRANCH LIBRARY,1075 S 10TH AVE,TUCSON,AZ,85701,32.208557,-110.9745725,5205945260,BR
BR-SOUTHWEST,SOUTHWEST BRANCH LIBRARY,6855 S MARK RD,TUCSON,AZ,85757,32.1271197,-111.0717878,5205945270,BR
BR-QUINCIE,QUINCIE DOUGLAS BRANCH LIBRARY,1585 E 36TH ST,TUCSON,AZ,85713,32.1924275,-110.947956,5205945335,BR
BR-MARTHA,MARTHA COOPER BRANCH LIBRARY,1377 N CATALINA AVE,TUCSON,AZ,85712,32.2393119,-110.8990847,5205945315,BR
BR-FLOWING,FLOWING WELLS BRANCH LIBRARY,1730 W WETMORE RD,TUCSON,AZ,85705,32.28697,-111.0019759,5205945225,BR
BR-WHEELER,WHEELER TAFT ABBETT SR. BRANCH LIBRARY,7800 N SCHISLER DR,TUCSON,AZ,85743,32.3487393,-111.0958641,5205945200,BR
BR-SAHUARITA,SAHUARITA BRANCH LIBRARY,670 W SAHUARITA RD,SAHUARITA,AZ,85629,31.9565248,-110.9804937,5205945490,BR
BR-ORO,ORO VALLEY BRANCH LIBRARY,1305 W NARANJA DR,ORO VALLEY,AZ,85737,32.4097425,-110.994315,5205945580,BR
BR-ESMOND,W. ANNE GIBSON-ESMOND STATION LIBRARY,10931 E MARY ANN CLEVELAND WAY,TUCSON,AZ,85747,32.2024351,-110.9680297,5205945460,BR
BR-RIORICO,RIO RICO LIBRARY,275 RIO RICO DR,RIO RICO,AZ,85648,31.4661172,-110.9915115,5202818067,BR
BR-TUBAC,TUBAC LIBRARY,50 BRIDGE RD,TUBAC,AZ,85640,31.6166939,-111.0439364,5203989814,BR
BR-SONOITA,SONOITA LIBRARY,3147 STATE HWY 83,SONOITA,AZ,85637,31.6747464,-110.6557126,5204555517,BR
CE-NOGALES,NOGALES - ROCHLIN PUBLIC LIBRARY,518 N GRAND AVE,NOGALES,AZ,85621,31.340942,-110.9360927,5202855717,CE
CE-PATAGONIA,PATAGONIA PUBLIC LIBRARY,346 DUQUESNE AVE,PATAGONIA,AZ,85624,31.5386903,-110.7538233,5203942010,CE
BR-ASHFORK,ASH FORK PUBLIC LIBRARY,450 W LEWIS AVE,ASH FORK,AZ,86320,35.2249473,-112.485713,9286372442,BR
BR-BAGDAD,BAGDAD PUBLIC LIBRARY,700 PALO VERDE RD #C,BAGDAD,AZ,86321,34.5798255,-113.1726591,9286332325,BR
BR-BLACK,BLACK CANYON CITY COMMUNITY LIBRARY,34701 S OLD BLACK CANYON HWY,BLACK CANYON CITY,AZ,85324,34.0626105,-112.1476134,6233745866,BR
BR-CONGRESS,CONGRESS PUBLIC LIBRARY,26750 SANTA FE RD,CONGRESS,AZ,85332,34.161483,-112.847236,9284273945,BR
BR-CORDES,CORDES LAKES PUBLIC LIBRARY,15989 CORDES LAKES DR,MAYER,AZ,86333,34.3110158,-112.1047748,9286325492,BR
BR-CROWN,CROWN KING PUBLIC LIBRARY,23550 S TOWERS MOUNTAIN RD,CROWN KING,AZ,86343,34.2076646,-112.3391787,9286325986,BR
BR-MAYER,MAYER PUBLIC LIBRARY,10004 WICKS AVE,MAYER,AZ,86333,34.3980949,-112.2357816,9286327370,BR
BR-SELIGMAN,SELIGMAN PUBLIC LIBRARY,54170 N FLOYD ST,SELIGMAN,AZ,86337,35.3280328,-112.8737798,9284223633,BR
BR-WILHOIT,WILHOIT PUBLIC LIBRARY,9325 S DONEGAL DR STE B,WILHOIT,AZ,86332,34.4119858,-112.6103386,9284423611,BR
BR-YARNELL,YARNELL PUBLIC LIBRARY,22278 HWY 89,YARNELL,AZ,85362,34.2266055,-112.7431971,9284273191,BR
BR-DEWEY,DEWEY-HUMBOLDT TOWN LIBRARY,2735 S CORRAL ST,HUMBOLDT,AZ,86329,34.5041799,-112.2392062,9286325049,BR
BR-BEAVER,BEAVER CREEK PUBLIC SCHOOL LIBRARY,4810 E BEAVER CREEK RD,RIMROCK,AZ,86335,34.6563121,-111.7653853,9285674034,BR
BR-PAULDEN,PAULDEN PUBLIC LIBRARY,16 W BIG CHINO ROAD,PAULDEN,AZ,86334,34.895441,-112.47007,9286361202,BR
BR-CLARK,CLARK MEMORIAL LIBRARY,39 N NINTH STREET,CLARKDALE,AZ,86324,34.7722768,-112.0576034,9286345423,BR
BR-SPRING,SPRING VALLEY LIBRARY,17320 E MULE DEER DRIVE,MAYER,AZ,86333,34.3479521,-112.1587781,9286421295,BR
BR-YFOOTHILLS,FOOTHILLS BRANCH LIBRARY,13226 S FRONTAGE RD,YUMA,AZ,85367,32.6677657,-114.4067824,9283421640,BR
BR-SANLUIS,SAN LUIS BRANCH LIBRARY,1075 N 6TH AVE,SAN LUIS,AZ,85349,32.4968621,-114.7669365,9286278344,BR
BR-SOMERTON,SOMERTON BRANCH LIBRARY,240 CANAL ST,SOMERTON,AZ,85350,32.6029874,-114.711667,9286272149,BR
BR-WELLTON,WELLTON BRANCH LIBRARY,28790 SAN JOSE AVE,WELLTON,AZ,85356,32.6717724,-114.1447127,9287859575,BR
CE-YUMA,YUMA COUNTY LIBRARY DISTRICT,2951 S 21ST DR,YUMA,AZ,85364,32.6739424,-114.645859,9287821871,CE
BR-ROLL,ROLL BRANCH LIBRARY,5151 S AVE 39E,ROLL,AZ,85347,32.7510357,-113.9707066,9287854942,BR
BR-DATELAND,DATELAND BRANCH LIBRARY,DATELAND SCHOOL - 1300 S AVE 64E,DATELAND,AZ,85333,32.8074171,-113.540984,9284542242,BR
BR-HERITAGE,HERITAGE BRANCH LIBRARY,350 3RD AVE,YUMA,AZ,85364,32.720799,-114.6233675,9287835415,BR
CE-DUNCAN,DUNCAN PUBLIC LIBRARY,122 N HWY 75,DUNCAN,AZ,85534,32.7265419,-109.0974225,9283592094,CE
CE-FOOTHILLS,DESERT FOOTHILLS LIBRARY,38443 N SCHOOLHOUSE RD,CAVE CREEK,AZ,85331,33.8350282,-111.9432457,4804882286,CE
CE-PEORIA,PEORIA PUBLIC LIBRARY SYSTEM,8463 W MONROE ST,PEORIA,AZ,85345,33.5772287,-112.2415089,6237737555,CE
BR-SUNRISE,SUNRISE MOUNTAIN BRANCH LIBRARY,21109 N 98TH AVE,PEORIA,AZ,85382,33.6760625,-112.2704365,6237738650,BR
CE-YOUNGTOWN,YOUNGTOWN PUBLIC LIBRARY,12035 N CLUB HOUSE SQ,YOUNGTOWN,AZ,85363,33.5939925,-112.300838,6239743401,CE
CE-NAVOFC,OFFICE OF NAVAJO NATION LIBRARY,HWY 264 POST OFFICE LOOP RD,WINDOW ROCK,AZ,86515,35.6646389,-109.0512986,9288716376,CE
BR-KAYENTA,KAYENTA COMMUNITY LIBRARY,HWY 163 1 MILE W OF HWY,KAYENTA,AZ,86033,36.7111616,-110.2517562,9286975563,BR
CE-GILA,GILA COUNTY LIBRARY DISTRICT,1400 E ASH ST,GLOBE,AZ,85501,33.3959349,-110.7713883,9284028768,CE
CE-COLRIVER,COLORADO RIVER INDIAN TRIBES LIBRARY/ARCHIVES,26600 MOHAVE RD,PARKER,AZ,85344,33.9476684,-114.4216855,9286699211,CE
CE-QUARTZ,QUARTZSITE PUBLIC LIBRARY,465 N PLYMOUTH AVE,QUARTZSITE,AZ,85346,33.6744921,-114.208331,9289274333,CE
CE-PIMAPL,PIMA PUBLIC LIBRARY,50 S 200 W,PIMA,AZ,85543,32.895335,-109.8316381,9284852822,CE
BR-CLAY,CLAY SPRINGS PUBLIC LIBRARY,2106 GRANITE RD,CLAY SPRINGS,AZ,85923,34.3587013,-110.2990432,9285357142,BR
BR-RIM,RIM COMMUNITY LIBRARY,3404 MUSTANG AVE,HEBER,AZ,85928,34.430834,-110.5864642,9285357144,BR
BR-WOODRUFF,WOODRUFF COMMUNITY LIBRARY,6414 W 1ST ST,WOODRUFF,AZ,85942,34.7801807,-110.0421697,9285243885,BR
CE-NAVAJO,NAVAJO COUNTY LIBRARY DISTRICT,121 W BUFFALO ST,HOLBROOK,AZ,86025,34.9038962,-110.1591953,9285244740,CE
BR-PINE,PINEDALE PUBLIC LIBRARY,1264 PINEDALE RD,PINEDALE,AZ,85934,34.3049567,-110.2482337,9287391717,BR
CE-BENSON,BENSON PUBLIC LIBRARY,300 S HUACHUCA ST,BENSON,AZ,85602,31.9658485,-110.2966341,5205869535,CE
CE-COPPER,COPPER QUEEN LIBRARY,6 MAIN ST,BISBEE,AZ,85603,31.441635,-109.9154656,5204324232,CE
CE-DOUGLAS,DOUGLAS PUBLIC LIBRARY,560 E 10TH ST,DOUGLAS,AZ,85607,31.3444975,-109.553317,5204177352,CE
CE-HUACHUCA,HUACHUCA CITY PUBLIC LIBRARY,506 N GONZALES BLVD,HUACHUCA CITY,AZ,85616,31.632732,-110.3353925,5204561063,CE
CE-SIERRA,SIERRA VISTA PUBLIC LIBRARY,2600 E TACOMA ST,SIERRA VISTA,AZ,85635,31.5659753,-110.2713173,5204584225,CE
CE-TOMBSTONE,TOMBSTONE CITY LIBRARY,210 S 4TH ST,TOMBSTONE,AZ,85638,31.7116574,-110.067645,5204573612,CE
CE-ELSIE,ELSIE S. HOGAN COMMUNITY LIBRARY,100 N CURTIS AVE,WILLCOX,AZ,85643,32.2533454,-109.8335802,5207664250,CE
CE-AJ,APACHE JUNCTION PUBLIC LIBRARY,1177 N IDAHO RD,APACHE JUNCTION,AZ,85119,33.425635,-111.5460625,4804748555,CE
CE-CASAGRANDE,CASA GRANDE PUBLIC LIBRARY,449 N DRYLAKE ST,CASA GRANDE,AZ,85122,32.877496,-111.749607,5204218710,CE
BR-VISTA,VISTA GRANDE LIBRARY,1556 N ARIZOLA RD,CASA GRANDE,AZ,85122,32.8904765,-111.7139746,5204218652,BR
CE-VENITO,VENITO GARCIA LIBRARY,MAIN ST - TRIBAL BLDG,SELLS,AZ,85634,31.9146251,-111.8674999,5203835756,CE
CE-COCOPAH,COCOPAH TRIBAL LIBRARY,14250 S AVE I,SOMERTON,AZ,85350,32.5925153,-114.7695814,9286278026,CE
CE-SALTRIVER,SALT RIVER TRIBAL LIBRARY,11725 E INDIAN SCHOOL RD,SCOTTSDALE,AZ,85256,33.4951637,-111.8281102,4803626600,CE
CE-GLOBE,GLOBE PUBLIC LIBRARY,339 S BROAD ST,GLOBE,AZ,85501,33.3935816,-110.7855709,9284256111,CE
CE-HAYDEN,HAYDEN PUBLIC LIBRARY,219 W 5TH AVE,HAYDEN,AZ,85135,33.0029796,-110.7850645,9282002997,CE
CE-MIAMI,MIAMI MEMORIAL LIBRARY,282 S ADONIS AVE,MIAMI,AZ,85539,33.3962473,-110.8690405,9284732621,CE
CE-PAYSON,PAYSON PUBLIC LIBRARY,328 N MCLANE RD,PAYSON,AZ,85541,34.244126,-111.3317529,9284749260,CE
CE-ISABELLE,ISABELLE HUNT MEMORIAL PUBLIC LIBRARY,6124 W RANDALL PLACE,PINE,AZ,85544,34.3881117,-111.4555479,9284763678,CE
CE-SANCARLOS,SAN CARLOS PUBLIC LIBRARY,89 SAN CARLOS AVE,SAN CARLOS,AZ,85550,33.3533774,-110.4529364,9284752611,CE
CE-TONTO,TONTO BASIN PUBLIC LIBRARY,415 OLD HWY 188,TONTO BASIN,AZ,85553,33.8711691,-111.3144312,9284792355,CE
CE-YOUNG,YOUNG PUBLIC LIBRARY,124 S MIDWAY AVE,YOUNG,AZ,85554,34.101036,-110.9529727,9284623588,CE
CE-COOLIDGE,COOLIDGE PUBLIC LIBRARY,160 W CENTRAL AVE,COOLIDGE,AZ,85128,32.9776509,-111.5172882,5207236030,CE
CE-ELOY,ELOY SANTA CRUZ LIBRARY,1000 N MAIN ST,ELOY,AZ,85131,32.7599616,-111.5552292,5204663814,CE
CE-FLORENCE,VINEY JONES LIBRARY,778 N MAIN ST,FLORENCE,AZ,85132,33.0392557,-111.3876383,5208688311,CE
CE-KEARNY,KEARNY PUBLIC LIBRARY,912-A TILBURY RD,KEARNY,AZ,85137,33.0546318,-110.914266,5203635861,CE
CE-MAMMOTH,MAMMOTH PUBLIC LIBRARY,125 N CLARK ST,MAMMOTH,AZ,85618,32.721729,-110.641334,5204872026,CE
CE-MARICOPAPL,MARICOPA LIBRARY & CULTURAL CENTER,18160 N MAYA ANGELOU DR,MARICOPA,AZ,85138,33.0741593,-112.0148171,5205682926,CE
CE-SUPERIOR,SUPERIOR PUBLIC LIBRARY,99 N KELLNER AVE,SUPERIOR,AZ,85173,33.2945289,-111.0974981,5206892327,CE
CE-CAMPVERDE,CAMP VERDE COMMUNITY LIBRARY,130 BLACK BRIDGE RD,CAMP VERDE,AZ,86322,34.571362,-111.8545475,9285548380,CE
CE-CHINO,CHINO VALLEY PUBLIC LIBRARY,1020 W PALOMINO RD,CHINO VALLEY,AZ,86323,34.7734115,-112.4662449,9286362687,CE
CE-COTTON,COTTONWOOD PUBLIC LIBRARY,100 S 6TH ST,COTTONWOOD,AZ,86326,34.737535,-112.0227775,9286347559,CE
CE-JEROME,JEROME PUBLIC LIBRARY,600 CLARK ST,JEROME,AZ,86331,34.7480784,-112.1142696,9286390574,CE
CE-PVALLEY,PRESCOTT VALLEY PUBLIC LIBRARY,7401 E SKOOG BLVD,PRESCOTT VALLEY,AZ,86314,34.5957468,-112.3359814,9287593040,CE
CE-SEDONA,SEDONA PUBLIC LIBRARY,3250 WHITE BEAR RD,SEDONA,AZ,86336,34.862346,-111.8177568,9282827714,CE
BR-OAKCREEK,SEDONA PUBLIC LIBRARY IN THE VILLAGE,25 W SADDLEHORN RD,SEDONA,AZ,86351,34.7877842,-111.7643895,9282827114,BR
CE-PRESCOTT,PRESCOTT PUBLIC LIBRARY,215 E GOODWIN ST,PRESCOTT,AZ,86303,34.539893,-112.466649,9287771500,CE
CE-HOLBROOK,HOLBROOK PUBLIC LIBRARY,403 PARK ST,HOLBROOK,AZ,86025,34.9069443,-110.1549067,9285243732,CE
CE-LARSON,PINETOP-LAKESIDE PUBLIC LIBRARY,1595 JOHNSON DR,LAKESIDE,AZ,85929,34.1500903,-109.9718946,9283686688,CE
CE-SHOWLOW,SHOW LOW PUBLIC LIBRARY,181 N 9TH ST,SHOW LOW,AZ,85901,34.2514099,-110.0320114,9285324070,CE
CE-SNOWFLAKE,SNOWFLAKE-TAYLOR PUBLIC LIBRARY,418 S 4TH W,SNOWFLAKE,AZ,85937,34.5032256,-110.0857095,9285367103,CE
CE-WINSLOW,WINSLOW PUBLIC LIBRARY,420 W GILMORE ST,WINSLOW,AZ,86047,35.0335375,-110.69874,9282894982,CE
CE-FREDONIA,FREDONIA PUBLIC LIBRARY,130 N MAIN ST,FREDONIA,AZ,86022,36.9513811,-112.5263407,9286437137,CE
CE-PAGE,PAGE PUBLIC LIBRARY,479 S LAKE POWELL BLVD,PAGE,AZ,86040,36.9093286,-111.4631105,9286454270,CE
CE-WILLIAMS,WILLIAMS PUBLIC LIBRARY,113 S 1ST ST,WILLIAMS,AZ,86046,35.2501632,-112.1869019,9286352263,CE
BR-EFLAG,EAST FLAGSTAFF COMMUNITY LIBRARY,3000 N 4TH ST STE 5,FLAGSTAFF,AZ,86004,35.217739,-111.6135025,9282132348,BR
BR-FOREST,FOREST LAKES COMMUNITY LIBRARY,417 OLD RIM RD,FOREST LAKES,AZ,85931,34.3366125,-110.8060811,9285359125,BR
BR-TUBA,TUBA CITY PUBLIC LIBRARY,78 MAIN ST,TUBA CITY,AZ,86045,36.1309951,-111.239839,9282835856,BR
CE-FLAG,FLAGSTAFF CITY-COCONINO COUNTY PUBLIC LIBRARY,300 W ASPEN AVE,FLAGSTAFF,AZ,86001,35.1997265,-111.6525848,9282132331,CE
BR-CANYON,GRAND CANYON COMMUNITY LIBRARY,208 NAVAJO ST,GRAND CANYON,AZ,86023,36.0543897,-112.135324,9286382718,BR
CE-EDWARD,THE EDWARD MCELWAIN MEMORIAL LIBRARY,460 HUALAPAI WAY,PEACH SPRINGS,AZ,86434,35.5387776,-113.4223505,9287692200,CE
CE-KAIBAB,KAIBAB PAIUTE TRIBAL LIBRARY,1 N PIPE SPRINGS RD,FREDONIA,AZ,86022,36.8809323,-112.7389987,9286436025,CE
CE-FTMCDOWELL,FT. MCDOWELL YAVAPAI NATION TRIBAL LIBRARY,16708 N FORT MCDOWELL RD,FT. MCDOWELL,AZ,85264,33.6396127,-111.6764894,4807897848,CE
CE-HAYES,IRA H. HAYES MEMORIAL LIBRARY,94 N CHURCH ST,SACATON,AZ,85147,33.077595,-111.7428466,5205623225,CE
BR-BOUSE,BOUSE PUBLIC LIBRARY,44031 PLOMOSA RD,BOUSE,AZ,85325,33.9315175,-114.009412,9288511023,BR
BR-CENTENNIAL,CENTENNIAL PUBLIC LIBRARY,69725 CENTENNIAL PARK RD,SALOME,AZ,85348,33.788233,-113.565375,9288594271,BR
CE-AVAICH,AVA ICH ASIIT TRIBAL LIBRARY,1605 PLANTATION RD,MOHAVE VALLEY,AZ,86440,34.8515875,-114.594689,9283462665,CE
CE-FERNANDO,DR. FERNANDO ESCALANTE TRIBAL LIBRARY,5100 W CALLE TETAKUSIM,TUCSON,AZ,85757,32.1153548,-111.0747986,5208795473,CE
CE-YAVPRES,YAVAPAI-PRESCOTT TRIBAL LIBRARY,530 E MERRITT ST,PRESCOTT,AZ,86301,34.5552101,-112.4661121,9287789445,CE
CE-AKCHIN,AK-CHIN INDIAN COMMUNITY LIBRARY,46521 W FARRELL RD,MARICOPA,AZ,85139,33.0289328,-112.067235,5205681675,CE
CE-SANLUCY,SAN LUCY LIBRARY,1125 C ST,GILA BEND,AZ,85337,32.9636355,-112.718541,9286832012,CE
CE-XAVIER,SAN XAVIER LEARNING CENTER LIBRARY,1960 W WA:K LANE,TUCSON,AZ,85746,32.0954281,-111.0088695,5208078620,CE
M597,FREMONT MAIN LIBRARY,2400 STEVENSON BLVD.,FREMONT,CA,94538,37.5519765,-121.9715672,5107451401,BR
M597,ALBANY LIBRARY,1247 MARIN AVENUE,ALBANY,CA,94706,37.8876362,-122.2933191,5105263720,BR
M597,CASTRO VALLEY LIBRARY,3600 NORBRIDGE AVE.,CASTRO VALLEY,CA,94546,37.6927252,-122.071038,5106677900,BR
M597,CENTERVILLE LIBRARY,3801 NICOLET AVE.,FREMONT,CA,94536,37.5672828,-122.0218577,5107952629,BR
M597,DUBLIN LIBRARY,200 CIVIC PLAZA,DUBLIN,CA,94568,37.7036792,-121.9182579,9258281315,BR
M597,IRVINGTON LIBRARY,41825 GREENPARK DR.,FREMONT,CA,94538,37.522605,-121.9653725,5107952631,BR
M597,NEWARK LIBRARY,37055 NEWARK BLVD.,NEWARK,CA,94560,37.5347799,-122.0292943,5107952627,BR
M597,NILES LIBRARY,150 I ST.,FREMONT,CA,94536,37.5760892,-121.9782635,5107952626,BR
M597,SAN LORENZO LIBRARY,395 PASEO GRANDE,SAN LORENZO,CA,94580,37.680278,-122.1252208,5106706283,BR
M597,UNION CITY LIBRARY,34007 ALVARADO-NILES RD.,UNION CITY,CA,94587,37.5885883,-122.0267209,5107451464,BR
M597,CHERRYLAND LIBRARY,278 HAMPTON ROAD,HAYWARD,CA,94541,37.68392,-122.112,5106268522,BR
M598,ALAMEDA FREE LIBRARY,1550 OAK ST,ALAMEDA,CA,94501,37.766965,-122.2426175,5107477747,CE
M598,WEST END BRANCH,788 SANTA CLARA AVE.,ALAMEDA,CA,94501,37.7732078,-122.2730294,5107477767,BR
M598,BAY FARM ISLAND BRANCH,3221 MECARTNEY RD.,ALAMEDA,CA,94502,37.7363157,-122.2423636,5107477787,BR
M599,ALHAMBRA PUBLIC LIBRARY,101 S. FIRST ST.,ALHAMBRA,CA,91801,34.0934218,-118.1271042,6265705008,CE
M600,ALPINE COUNTY LIBRARY,270 LARAMIE ST.,MARKLEEVILLE,CA,96120,38.6931403,-119.7812186,5306942120,CE
M600,BEAR VALLEY LIBRARY STATION,367 CREEKSIDE DR.,BEAR VALLEY,CA,95223,38.4654435,-120.0389427,2097536219,BR
M601,ALTADENA LIBRARY DISTRICT,600 E. MARIPOSA ST.,ALTADENA,CA,91001,34.1895455,-118.1370744,6267980833,CE
M601,BOB LUCAS MEMORIAL LIBRARY AND LITERACY CENTER,2659 N. LINCOLN AVE.,ALTADENA,CA,91001,34.1912981,-118.158706,6267988338,BR
M602,AMADOR COUNTY LIBRARY,530 SUTTER ST.,JACKSON,CA,95642,38.3534365,-120.7770776,2092236400,CE
M602,IONE BRANCH LIBRARY,25 EAST MAIN ST.,IONE,CA,95640,38.3528662,-120.9328753,2092742560,BR
M602,PIONEER BRANCH LIBRARY,25070 BUCKHORN RIDGE RD.,PIONEER,CA,95666,38.4397697,-120.5616236,2092957330,BR
M602,PLYMOUTH BRANCH,9375 MAIN ST.,PLYMOUTH,CA,95669,38.4811117,-120.8482608,2092456476,BR
M602,PINE GROVE BRANCH LIBRARY,19889 HWY 88,PINE GROVE,CA,95665,38.4131458,-120.6578473,2092963111,BR
M603,ANAHEIM PUBLIC LIBRARY - CENTRAL,500 W. BROADWAY,ANAHEIM,CA,92805,33.8318717,-117.9193658,7147651880,CE
M603,HASKETT BRANCH,2650 W. BROADWAY,ANAHEIM,CA,92804,33.8285225,-117.978519,7147655075,BR
M603,CANYON HILLS BRANCH,400 SCOUT TRAIL,ANAHEIM,CA,92807,33.8454526,-117.786163,7147656444,BR
M603,EUCLID BRANCH,1340 S. EUCLID,ANAHEIM,CA,92802,33.814371,-117.9414025,7147653625,BR
M603,SUNKIST BRANCH,901 S. SUNKIST,ANAHEIM,CA,92806,33.8280978,-117.880547,7147653576,BR
M603,EAST ANAHEIM BRANCH,8201 E. SANTA ANA CANYON RD.,ANAHEIM,CA,92808,33.8678504,-117.7469062,7147653887,BR
M603,ANAHEIM HERITAGE CENTER @ THE MUZEO,241 S. ANAHEIM BLVD.,ANAHEIM,CA,92805,33.8336997,-117.9133265,7147656453,BR
M603,PONDEROSA JOINT-USE LIBRARY,240 E. ORANGEWOOD AVE.,ANAHEIM,CA,92802,33.7961025,-117.904079,7147400202,BR
M604,ARCADIA PUBLIC LIBRARY,20 W. DUARTE ROAD,ARCADIA,CA,91006,34.129352,-118.0320712,6268215567,CE
M605,AUBURN LIBRARY,350 NEVADA ST.,AUBURN,CA,95603,38.906099,-121.0824483,5308864501,CE
M605,COLFAX LIBRARY,10 W.CHURCH ST.,COLFAX,CA,95713,39.0994837,-120.9541365,5303468211,BR
M605,FORESTHILL LIBRARY,24580 MAIN ST.,FORESTHILL,CA,95631,39.020241,-120.8165933,5303672785,BR
M605,KINGS BEACH LIBRARY,301 SECLINE STREET,KINGS BEACH,CA,96143,39.2386506,-120.0298787,5305462021,BR
M605,PENRYN LIBRARY,2215 RIPPEY ROAD,PENRYN,CA,95663,38.8520062,-121.1694214,-3,BR
M605,ROCKLIN LIBRARY,4890 GRANITE DRIVE,ROCKLIN,CA,95677,38.7887614,-121.226225,9166243133,BR
M605,TAHOE CITY LIBRARY,740 N. LAKE BLVD.,TAHOE CITY,CA,96145,39.1730321,-120.1386254,5305833382,BR
M605,GRANITE BAY LIBRARY,6475 DOUGLAS BLVD,GRANITE BAY,CA,95746,38.7438245,-121.1806762,9167915590,BR
M606,AZUSA CITY LIBRARY,729 N. DALTON AVE.,AZUSA,CA,91702,34.1341049,-117.9049991,6268125232,CE
M607,BERKELEY PUBLIC LIBRARY - CENTRAL,2090 KITTREDGE ST.,BERKELEY,CA,94704,37.868363,-122.2685722,5109816100,CE
M607,CLAREMONT BRANCH LIBRARY,2940 BENVENUE AVE.,BERKELEY,CA,94705,37.8566416,-122.2542125,5109816280,BR
M607,NORTH BRANCH LIBRARY,1170 THE ALAMEDA,BERKELEY,CA,94707,37.8856497,-122.2752236,5109816250,BR
M607,SOUTH BRANCH LIBRARY,1901 RUSSELL ST.,BERKELEY,CA,94703,37.8562049,-122.2709694,5109816260,BR
M607,WEST BRANCH LIBRARY,1125 UNIVERSITY AVE.,BERKELEY,CA,94702,37.8693405,-122.2909042,5109816270,BR
M608,BEVERLY HILLS PUBLIC LIBRARY,444 N. REXFORD DR.,BEVERLY HILLS,CA,90210,34.0732331,-118.4001319,3102882220,CE
